,Unnamed: 0,City,Country,Max Temp,% Humidity,% Cloudiness,Wind Speed,Lat,Lng
0,0,Oranjestad,AW,82.35,78,20,20.71,12.524,-70.027
1,1,Vostok,RU,63.5,35,78,7.4,46.4856,135.8833
2,2,Punta arenas,CL,44.71,61,75,13.8,-53.15,-70.9167
3,3,Ushuaia,AR,47.86,49,75,17.27,-54.8,-68.3
4,4,Barrow,US,30.22,80,100,21.85,71.2906,-156.7887
5,5,Ushuaia,AR,47.86,49,75,17.27,-54.8,-68.3
6,6,Avarua,CK,80.65,78,40,13.8,-21.2078,-159.775
7,7,Avarua,CK,80.65,78,40,13.8,-21.2078,-159.775
8,8,Provideniya,RU,42.91,75,0,11.18,64.3833,-173.3
9,9,Hermanus,ZA,62.02,49,11,7.2,-34.4187,19.2345
10,10,Avarua,CK,80.65,78,40,13.8,-21.2078,-159.775
11,11,Ponta do sol,CV,73.18,79,16,15.68,17.1994,-25.0919
12,12,Vaini,TO,75.96,79,45,7.43,-21.2,-175.2
13,13,Bredasdorp,ZA,54.66,61,3,3.98,-34.5322,20.0403
14,14,Tuktoyaktuk,CA,32.41,75,36,9.24,69.4541,-133.0374
15,15,Nantucket,US,61.0,94,0,4.61,41.2835,-70.0995
16,16,Rikitea,PF,73.31,79,62,19.06,-23.1203,-134.9692
17,17,Puerto ayora,EC,70.56,96,100,4.0,-0.7393,-90.3518
18,18,Cape town,ZA,64.11,51,4,3.67,-33.9258,18.4232
19,19,Worland,US,64.67,83,40,3.44,44.0169,-107.9554
20,20,College,US,73.58,20,40,11.5,64.8569,-147.8028
21,21,Vardo,NO,44.58,81,100,20.71,70.3705,31.1107
22,22,Kahului,US,76.84,90,75,5.01,20.8947,-156.47
23,23,Romny,RU,67.37,56,23,5.1,50.725,129.2894
24,24,Arraial do cabo,BR,69.06,66,0,17.34,-22.9661,-42.0278
25,25,Labytnangi,RU,44.26,40,100,4.83,66.6572,66.4183
26,26,Quepos,CR,76.42,91,100,5.17,9.4236,-84.1652
27,27,Atuona,PF,78.48,72,13,15.35,-9.8,-139.0333
28,28,Hilo,US,87.28,86,100,4.61,19.7297,-155.09
29,29,Guerrero negro,MX,63.7,82,10,22.01,27.9769,-114.0611
30,30,Kodiak,US,56.71,72,0,11.5,57.79,-152.4072
31,31,Tuktoyaktuk,CA,32.41,75,36,9.24,69.4541,-133.0374
32,32,Victoria,SC,80.06,78,100,8.34,-4.6167,55.45
33,33,Necochea,AR,47.43,71,19,7.52,-38.5473,-58.7368
34,34,Nantucket,US,61.0,94,0,4.61,41.2835,-70.0995
35,35,Punta arenas,CL,44.71,61,75,13.8,-53.15,-70.9167
36,36,Saint-philippe,RE,71.19,66,55,7.25,-21.3585,55.7679
37,37,Skibbereen,IE,55.11,95,100,6.64,51.55,-9.2667
38,38,Hermanus,ZA,62.02,49,11,7.2,-34.4187,19.2345
39,39,Punta arenas,CL,44.71,61,75,13.8,-53.15,-70.9167
40,40,Albany,AU,54.82,77,100,5.99,-35.0169,117.8917
41,41,Broome,AU,78.75,41,20,9.22,-17.9667,122.2333
42,42,Lompoc,US,77.77,85,100,21.99,34.6391,-120.4579
43,43,Busselton,AU,58.06,61,100,10.22,-33.65,115.3333
44,44,Rikitea,PF,73.31,79,62,19.06,-23.1203,-134.9692
45,45,Hasaki,JP,63.0,87,100,21.97,35.7333,140.8333
46,46,Ushuaia,AR,47.86,49,75,17.27,-54.8,-68.3
47,47,Albany,AU,54.82,77,100,5.99,-35.0169,117.8917
48,48,Mahebourg,MU,69.26,79,40,9.82,-20.4081,57.7
49,49,Hamilton,BM,77.04,89,100,24.16,32.2915,-64.778
50,50,Pisco,PE,65.01,77,14,8.05,-13.7,-76.2167
51,51,Butaritari,KI,82.24,71,69,12.84,3.0707,172.7902
52,52,Valmiera,LV,49.41,94,51,3.76,57.5411,25.4275
53,53,Puerto leguizamo,CO,73.83,94,100,0.98,-0.1934,-74.7819
54,54,Ikryanoye,RU,66.18,47,100,6.31,46.0932,47.7308
55,55,Provideniya,RU,42.91,75,0,11.18,64.3833,-173.3
56,56,Kodiak,US,56.71,72,0,11.5,57.79,-152.4072
57,57,Albany,AU,54.82,77,100,5.99,-35.0169,117.8917
58,58,Kapaa,US,82.38,70,0,10.36,22.0752,-159.319
59,59,Butaritari,KI,82.24,71,69,12.84,3.0707,172.7902
60,60,San patricio,MX,78.91,73,40,9.22,19.2167,-104.7
61,61,Troitskoye,RU,49.39,77,79,7.72,52.9821,84.6757
62,62,Quepos,CR,76.42,91,100,5.17,9.4236,-84.1652
63,63,Barrow,US,30.22,80,100,21.85,71.2906,-156.7887
64,64,Osmanabad,IN,82.35,50,100,12.48,18.1667,76.05
65,65,Yellowknife,CA,73.56,25,79,17.0,62.456,-114.3525
66,66,Provost,CA,61.72,43,100,17.49,52.3501,-110.2683
67,67,Stokmarknes,NO,42.78,75,100,14.97,68.5646,14.9108
68,68,Presidencia roque saenz pena,AR,64.2,99,100,4.34,-26.7852,-60.4388
69,69,Chokurdakh,RU,55.17,33,0,11.01,70.6333,147.9167
70,70,Leningradskiy,RU,35.98,75,66,10.27,69.3833,178.4167
71,71,Albany,AU,54.82,77,100,5.99,-35.0169,117.8917
72,72,Providencia,MX,90.21,51,12,9.46,28.7167,-111.5833
73,73,Kavieng,PG,84.36,66,14,3.67,-2.5744,150.7967
74,74,Butaritari,KI,82.24,71,69,12.84,3.0707,172.7902
75,75,Bonthe,SL,77.23,88,100,6.73,7.5264,-12.505
76,76,Kodiak,US,56.71,72,0,11.5,57.79,-152.4072
77,77,Guerrero negro,MX,63.7,82,10,22.01,27.9769,-114.0611
78,78,Ilulissat,GL,41.02,36,0,16.11,69.2167,-51.1
79,79,Rikitea,PF,73.31,79,62,19.06,-23.1203,-134.9692
80,80,Tilichiki,RU,47.16,81,99,8.75,60.4667,166.1
81,81,Albany,AU,54.82,77,100,5.99,-35.0169,117.8917
82,82,Busselton,AU,58.06,61,100,10.22,-33.65,115.3333
83,83,New norfolk,AU,49.5,84,98,8.01,-42.7826,147.0587
84,84,Hoopstad,ZA,46.56,64,0,6.89,-27.8327,25.9083
85,85,New norfolk,AU,49.5,84,98,8.01,-42.7826,147.0587
86,86,San joaquin,BO,74.48,46,8,4.0,-16.3829,-58.3947
87,87,Bowen,AU,77.68,68,100,4.52,-20.0167,148.2333
88,88,Saquarema,BR,63.16,78,0,10.94,-22.92,-42.5103
89,89,Xinan,CN,71.42,99,100,3.2,26.72,119.8556
90,90,Moussoro,TD,86.25,37,82,4.83,13.6408,16.4901
91,91,Qaanaaq,GL,25.81,78,81,5.55,77.484,-69.3632
92,92,Cayenne,GF,81.09,1,100,2.3,4.9333,-52.3333
93,93,Victoria,SC,80.06,78,100,8.34,-4.6167,55.45
94,94,Rikitea,PF,73.31,79,62,19.06,-23.1203,-134.9692
95,95,Yellowknife,CA,73.56,25,79,17.0,62.456,-114.3525
96,96,Cape town,ZA,64.11,51,4,3.67,-33.9258,18.4232
97,97,Port blair,IN,77.04,94,100,3.44,11.6667,92.75
98,98,Norman wells,CA,49.73,52,100,6.51,65.282,-126.8329
99,99,Khabary,RU,47.95,60,8,5.88,53.6259,79.5345
100,100,Kaeo,NZ,69.33,69,5,2.71,-35.1,173.7833
101,101,Arraial do cabo,BR,69.06,66,0,17.34,-22.9661,-42.0278
102,102,Ushuaia,AR,47.86,49,75,17.27,-54.8,-68.3
103,103,Palora,EC,65.68,99,97,2.21,-1.7,-77.9333
104,104,Ribeira grande,PT,65.16,94,81,11.72,38.5167,-28.7
105,105,Hermanus,ZA,62.02,49,11,7.2,-34.4187,19.2345
106,106,Rikitea,PF,73.31,79,62,19.06,-23.1203,-134.9692
107,107,Heinola,FI,42.01,86,1,4.83,61.2056,26.0381
108,108,Cape town,ZA,64.11,51,4,3.67,-33.9258,18.4232
109,109,Cape town,ZA,64.11,51,4,3.67,-33.9258,18.4232
110,110,Sola,VU,81.28,75,29,18.92,-13.8833,167.55
111,111,San carlos de bariloche,AR,40.37,81,94,20.6,-41.1456,-71.3082
112,112,Norwood,CA,63.43,53,100,4.29,44.3834,-77.9828
113,113,Hamilton,BM,77.04,89,100,24.16,32.2915,-64.778
114,114,Nikolskoye,RU,51.8,94,100,4.43,59.7035,30.7861
115,115,Shellbrook,CA,55.26,57,55,9.22,53.2168,-106.4011
116,116,Mukdahan,TH,84.2,70,100,12.01,16.5833,104.5
117,117,Busselton,AU,58.06,61,100,10.22,-33.65,115.3333
118,118,Xiaoweizhai,CN,70.63,86,100,3.89,26.1903,107.5125
119,119,Cape town,ZA,64.11,51,4,3.67,-33.9258,18.4232
120,120,Quelimane,MZ,65.03,96,86,5.41,-17.8786,36.8883
121,121,Cockburn town,BS,81.18,83,100,12.26,24.0333,-74.5167
122,122,Tasiilaq,GL,39.36,62,5,4.43,65.6145,-37.6368
123,123,Yurimaguas,PE,73.96,87,100,0.16,-5.9,-76.0833
124,124,Saint-philippe,RE,71.19,66,55,7.25,-21.3585,55.7679
125,125,Qaanaaq,GL,25.81,78,81,5.55,77.484,-69.3632
126,126,Boddam,GB,48.58,87,82,1.57,57.4667,-1.7833
127,127,Punta arenas,CL,44.71,61,75,13.8,-53.15,-70.9167
128,128,Kapaa,US,82.38,70,0,10.36,22.0752,-159.319
129,129,Vardo,NO,44.58,81,100,20.71,70.3705,31.1107
130,130,Rikitea,PF,73.31,79,62,19.06,-23.1203,-134.9692
131,131,Vaini,TO,75.96,79,45,7.43,-21.2,-175.2
132,132,Eirunepe,BR,73.76,93,89,2.01,-6.6603,-69.8736
133,133,Padang,ID,84.25,66,97,0.78,-0.9492,100.3543
134,134,Bethel,US,64.9,72,0,0.0,41.3712,-73.414
135,135,Atuona,PF,78.48,72,13,15.35,-9.8,-139.0333
136,136,Tabou,CI,77.04,87,100,5.68,4.423,-7.3528
137,137,Berlevag,NO,44.55,87,100,16.11,70.8578,29.0864
138,138,Yellowknife,CA,73.56,25,79,17.0,62.456,-114.3525
139,139,Lodeynoye pole,RU,48.94,97,100,5.59,60.726,33.5531
140,140,Port macquarie,AU,68.9,42,0,12.53,-31.4333,152.9167
141,141,East london,ZA,61.0,79,9,12.19,-33.0153,27.9116
142,142,Puerto ayora,EC,70.56,96,100,4.0,-0.7393,-90.3518
143,143,Cidreira,BR,62.4,97,100,8.19,-30.1811,-50.2056
144,144,Chokurdakh,RU,55.17,33,0,11.01,70.6333,147.9167
145,145,Ushuaia,AR,47.86,49,75,17.27,-54.8,-68.3
146,146,Georgetown,SH,78.01,69,34,10.38,-7.9333,-14.4167
147,147,Katsuura,JP,64.42,91,100,24.45,35.1333,140.3
148,148,Lebu,CL,50.92,88,100,4.12,-37.6167,-73.65
149,149,Ribeira grande,PT,65.16,94,81,11.72,38.5167,-28.7
150,150,Punta arenas,CL,44.71,61,75,13.8,-53.15,-70.9167
151,151,Rikitea,PF,73.31,79,62,19.06,-23.1203,-134.9692
152,152,Hobart,AU,49.86,76,75,26.46,-42.8794,147.3294
153,153,Yulara,AU,57.38,52,56,11.21,-25.2406,130.9889
154,154,Upernavik,GL,29.12,81,1,9.82,72.7868,-56.1549
155,155,Cayenne,GF,81.09,1,100,2.3,4.9333,-52.3333
156,156,Nome,US,71.11,34,0,14.97,64.5011,-165.4064
157,157,Ilulissat,GL,41.02,36,0,16.11,69.2167,-51.1
158,158,Tuktoyaktuk,CA,32.41,75,36,9.24,69.4541,-133.0374
159,159,Hermanus,ZA,62.02,49,11,7.2,-34.4187,19.2345
160,160,Norman wells,CA,49.73,52,100,6.51,65.282,-126.8329
161,161,Rikitea,PF,73.31,79,62,19.06,-23.1203,-134.9692
162,162,Bambous virieux,MU,69.22,79,54,9.48,-20.3428,57.7575
163,163,Kolondieba,ML,81.03,52,100,9.19,11.0882,-6.8926
164,164,Rikitea,PF,73.31,79,62,19.06,-23.1203,-134.9692
165,165,Cacule,BR,58.91,70,6,4.38,-14.5033,-42.2222
166,166,Carnarvon,AU,70.34,51,0,6.35,-24.8667,113.6333
167,167,Punta arenas,CL,44.71,61,75,13.8,-53.15,-70.9167
168,168,Ati,TD,85.64,38,87,7.7,13.2154,18.3353
169,169,Hithadhoo,MV,82.47,70,82,4.0,-0.6,73.0833
170,170,Punta arenas,CL,44.71,61,75,13.8,-53.15,-70.9167
171,171,Ponta do sol,CV,73.18,79,16,15.68,17.1994,-25.0919
172,172,Dallas,US,86.65,65,0,14.97,32.7668,-96.7836
173,173,San andres del rabanedo,ES,55.76,57,0,3.44,42.6117,-5.6167
174,174,Atuona,PF,78.48,72,13,15.35,-9.8,-139.0333
175,175,Cape town,ZA,64.11,51,4,3.67,-33.9258,18.4232
176,176,Castro,CL,47.68,93,100,20.71,-42.4721,-73.7732
177,177,Saint-philippe,RE,71.19,66,55,7.25,-21.3585,55.7679
178,178,Yar-sale,RU,41.04,52,100,3.71,66.8333,70.8333
179,179,Begowal,IN,94.28,11,5,6.85,31.6167,75.5167
180,180,Albany,AU,54.82,77,100,5.99,-35.0169,117.8917
181,181,Katobu,ID,84.22,70,94,3.09,-4.9408,122.5276
182,182,Ust-tsilma,RU,54.84,39,6,7.7,65.441,52.1498
183,183,Nikolskoye,RU,51.8,94,100,4.43,59.7035,30.7861
184,184,Buala,SB,82.83,75,100,8.93,-8.145,159.5921
185,185,Bredasdorp,ZA,54.66,61,3,3.98,-34.5322,20.0403
186,186,Guerrero negro,MX,63.7,82,10,22.01,27.9769,-114.0611
187,187,Redencao,BR,72.27,98,100,3.22,-4.2258,-38.7306
188,188,Yumen,CN,73.89,20,46,9.44,40.2833,97.2
189,189,Barrow,US,30.22,80,100,21.85,71.2906,-156.7887
190,190,Tunceli,TR,62.83,31,0,3.85,39.1083,39.5471
191,191,Rikitea,PF,73.31,79,62,19.06,-23.1203,-134.9692
192,192,Farafangana,MG,66.51,89,28,5.39,-22.8167,47.8333
193,193,Constitucion,MX,75.13,36,100,10.0,23.9912,-104.6749
194,194,La ronge,CA,54.0,47,19,7.83,55.1001,-105.2842
195,195,Akyab,MM,82.78,75,58,5.64,20.15,92.9
196,196,Mar del plata,AR,48.09,90,100,5.75,-38.0023,-57.5575
197,197,Rikitea,PF,73.31,79,62,19.06,-23.1203,-134.9692
198,198,Rockport,US,83.05,85,75,17.27,28.0206,-97.0544
199,199,Hilo,US,87.28,86,100,4.61,19.7297,-155.09
200,200,Carballo,ES,62.29,85,100,7.52,43.213,-8.691
201,201,Port alfred,ZA,54.18,91,8,11.41,-33.5906,26.891
202,202,Dunedin,NZ,56.98,63,0,4.56,-45.8742,170.5036
203,203,Kapaa,US,82.38,70,0,10.36,22.0752,-159.319
204,204,Punta arenas,CL,44.71,61,75,13.8,-53.15,-70.9167
205,205,Barrow,US,30.22,80,100,21.85,71.2906,-156.7887
206,206,Lamar,US,76.64,94,0,5.75,33.6668,-95.5836
207,207,Presidencia roque saenz pena,AR,64.2,99,100,4.34,-26.7852,-60.4388
208,208,Bealanana,MG,51.85,98,14,3.85,-14.55,48.7333
209,209,Naryan-mar,RU,55.36,41,35,10.42,67.6713,53.087
210,210,Sovetskiy,RU,47.39,50,2,4.14,61.3614,63.5842
211,211,Barcelos,BR,74.05,92,91,1.19,-0.9747,-62.9242
212,212,Dubbo,AU,48.33,81,100,13.8,-32.25,148.6167
213,213,Urambo,TZ,57.72,64,73,4.65,-5.0667,32.05
214,214,Castro,CL,47.68,93,100,20.71,-42.4721,-73.7732
215,215,Rikitea,PF,73.31,79,62,19.06,-23.1203,-134.9692
216,216,Yellowknife,CA,73.56,25,79,17.0,62.456,-114.3525
217,217,Bandar-e lengeh,IR,84.92,63,0,2.19,26.5579,54.8807
218,218,Souillac,MU,71.26,80,21,8.57,-20.5167,57.5167
219,219,Clyde river,CA,30.43,89,15,4.0,70.4692,-68.5914
220,220,Laguna,BR,61.99,94,100,8.12,-28.4825,-48.7808
221,221,Portland,AU,51.78,69,79,16.15,-38.3333,141.6
222,222,Busselton,AU,58.06,61,100,10.22,-33.65,115.3333
223,223,Saskylakh,RU,37.47,57,100,5.3,71.9167,114.0833
224,224,Busselton,AU,58.06,61,100,10.22,-33.65,115.3333
225,225,Chifeng,CN,52.97,79,100,18.81,42.2683,118.9636
226,226,Aswan,EG,85.93,20,11,10.07,24.0934,32.907
227,227,Davila,PH,85.6,73,73,14.63,18.4726,120.5763
228,228,Charters towers,AU,77.25,59,100,2.68,-20.1,146.2667
229,229,Atar,MR,87.98,15,100,11.3,20.5169,-13.0499
230,230,Qaanaaq,GL,25.81,78,81,5.55,77.484,-69.3632
231,231,Jamestown,SH,64.02,71,0,3.65,-15.9387,-5.7168
232,232,Saint-francois,GP,80.56,100,32,17.58,16.2526,-61.2741
233,233,Nikolskoye,RU,51.8,94,100,4.43,59.7035,30.7861
234,234,Magadan,RU,69.53,81,99,8.46,59.5667,150.8
235,235,New ulm,US,63.5,89,100,5.75,44.3125,-94.4605
236,236,Vaini,TO,75.96,79,45,7.43,-21.2,-175.2
237,237,Nanortalik,GL,43.34,78,100,4.16,60.1432,-45.2371
238,238,Chipinge,ZW,49.24,95,46,3.83,-20.1883,32.6236
239,239,Bluff,NZ,55.8,71,4,6.76,-46.6,168.3333
240,240,Kholmsk,RU,53.65,57,0,4.61,47.0511,142.0569
241,241,Hilo,US,87.28,86,100,4.61,19.7297,-155.09
242,242,Arlit,NE,87.71,10,7,12.1,18.7369,7.3853
243,243,Busselton,AU,58.06,61,100,10.22,-33.65,115.3333
244,244,Jamestown,SH,64.02,71,0,3.65,-15.9387,-5.7168
245,245,Qaanaaq,GL,25.81,78,81,5.55,77.484,-69.3632
246,246,Qaanaaq,GL,25.81,78,81,5.55,77.484,-69.3632
247,247,Mar del plata,AR,48.09,90,100,5.75,-38.0023,-57.5575
248,248,Yulara,AU,57.38,52,56,11.21,-25.2406,130.9889
249,249,Bredasdorp,ZA,54.66,61,3,3.98,-34.5322,20.0403
250,250,Atuona,PF,78.48,72,13,15.35,-9.8,-139.0333
251,251,Puerto ayora,EC,70.56,96,100,4.0,-0.7393,-90.3518
252,252,Avarua,CK,80.65,78,40,13.8,-21.2078,-159.775
253,253,Poum,NC,77.95,70,0,16.8,-20.2333,164.0167
254,254,Lebu,CL,50.92,88,100,4.12,-37.6167,-73.65
255,255,La palma,PA,77.68,89,100,4.14,8.4028,-78.1453
256,256,Hermanus,ZA,62.02,49,11,7.2,-34.4187,19.2345
257,257,Sawakin,SD,83.84,44,1,4.45,19.1059,37.3321
258,258,Butaritari,KI,82.24,71,69,12.84,3.0707,172.7902
259,259,Ushuaia,AR,47.86,49,75,17.27,-54.8,-68.3
260,260,Tura,RU,52.16,35,49,5.55,64.2833,100.25
261,261,Bathsheba,BB,79.48,81,12,19.48,13.2167,-59.5167
262,262,Kieta,PG,85.05,66,80,4.34,-6.2167,155.6333
263,263,Hilo,US,87.28,86,100,4.61,19.7297,-155.09
264,264,Ushuaia,AR,47.86,49,75,17.27,-54.8,-68.3
265,265,Pineville,US,84.09,71,75,5.75,31.3224,-92.4343
266,266,Yellowknife,CA,73.56,25,79,17.0,62.456,-114.3525
267,267,Okhotsk,RU,51.62,69,16,8.9,59.3833,143.3
268,268,Grindavik,IS,43.9,65,75,11.5,63.8424,-22.4338
269,269,Castro,CL,47.68,93,100,20.71,-42.4721,-73.7732
270,270,Hamilton,BM,77.04,89,100,24.16,32.2915,-64.778
271,271,Kanniyakumari,IN,79.83,84,100,15.43,8.0833,77.5667
272,272,Snyder,US,91.74,14,0,5.75,32.7179,-100.9176
273,273,Ushuaia,AR,47.86,49,75,17.27,-54.8,-68.3
274,274,Genhe,CN,68.41,28,13,4.52,50.7833,121.5167
275,275,Rikitea,PF,73.31,79,62,19.06,-23.1203,-134.9692
276,276,Richards bay,ZA,64.38,80,100,5.01,-28.783,32.0377
277,277,Kodiak,US,56.71,72,0,11.5,57.79,-152.4072
278,278,Busselton,AU,58.06,61,100,10.22,-33.65,115.3333
279,279,Cape town,ZA,64.11,51,4,3.67,-33.9258,18.4232
280,280,Kodiak,US,56.71,72,0,11.5,57.79,-152.4072
281,281,Praya,ID,85.86,70,20,3.44,-8.7054,116.2704
282,282,Butaritari,KI,82.24,71,69,12.84,3.0707,172.7902
283,283,Geraldton,AU,61.21,41,0,19.57,-28.7667,114.6
284,284,Sao filipe,CV,75.6,74,2,15.12,14.8961,-24.4956
285,285,Norman wells,CA,49.73,52,100,6.51,65.282,-126.8329
286,286,Rikitea,PF,73.31,79,62,19.06,-23.1203,-134.9692
287,287,Hermanus,ZA,62.02,49,11,7.2,-34.4187,19.2345
288,288,Atar,MR,87.98,15,100,11.3,20.5169,-13.0499
289,289,Hobart,AU,49.86,76,75,26.46,-42.8794,147.3294
290,290,Kodiak,US,56.71,72,0,11.5,57.79,-152.4072
291,291,Jamestown,SH,64.02,71,0,3.65,-15.9387,-5.7168
292,292,Taltal,CL,60.58,77,1,4.0,-25.4,-70.4833
293,293,Saint-philippe,RE,71.19,66,55,7.25,-21.3585,55.7679
294,294,Tolyatti,RU,55.8,96,100,4.9,53.5303,49.3461
295,295,Tual,ID,82.47,75,28,8.55,-5.6667,132.75
296,296,Puerto ayora,EC,70.56,96,100,4.0,-0.7393,-90.3518
297,297,Vaini,TO,75.96,79,45,7.43,-21.2,-175.2
298,298,Punta arenas,CL,44.71,61,75,13.8,-53.15,-70.9167
299,299,Erenhot,CN,59.09,43,5,2.57,43.6475,111.9767
300,300,Am timan,TD,80.74,62,51,8.46,11.0297,20.2827
301,301,Abha,SA,59.25,55,0,0.0,18.2164,42.5053
302,302,Albany,AU,54.82,77,100,5.99,-35.0169,117.8917
303,303,Yellowknife,CA,73.56,25,79,17.0,62.456,-114.3525
304,304,Busselton,AU,58.06,61,100,10.22,-33.65,115.3333
305,305,Ponta do sol,CV,73.18,79,16,15.68,17.1994,-25.0919
306,306,Bluff,NZ,55.8,71,4,6.76,-46.6,168.3333
307,307,Kapaa,US,82.38,70,0,10.36,22.0752,-159.319
308,308,Lima,PE,63.9,81,0,9.22,-12.0432,-77.0282
309,309,Tabas,IR,79.2,14,0,4.9,33.5959,56.9244
310,310,Atambua,ID,83.57,59,45,1.54,-9.1061,124.8925
311,311,Mandalgovi,MN,56.84,47,100,22.46,45.7625,106.2708
312,312,Santa rosa,AR,47.98,66,0,6.85,-36.6167,-64.2833
313,313,Butaritari,KI,82.24,71,69,12.84,3.0707,172.7902
314,314,Festus,US,76.75,72,100,5.93,38.2206,-90.396
315,315,Leningradskiy,RU,35.98,75,66,10.27,69.3833,178.4167
316,316,Theodoriana,GR,64.06,77,26,3.85,39.4356,21.21
317,317,Vaini,TO,75.96,79,45,7.43,-21.2,-175.2
318,318,Khatanga,RU,32.63,77,100,7.38,71.9667,102.5
319,319,Maningrida,AU,87.57,46,97,8.34,-12.0667,134.2667
320,320,Hasaki,JP,63.0,87,100,21.97,35.7333,140.8333
321,321,El rosario,SV,77.11,94,40,3.44,13.4978,-89.0297
322,322,East london,ZA,61.0,79,9,12.19,-33.0153,27.9116
323,323,Rikitea,PF,73.31,79,62,19.06,-23.1203,-134.9692
324,324,Avarua,CK,80.65,78,40,13.8,-21.2078,-159.775
325,325,Vaini,TO,75.96,79,45,7.43,-21.2,-175.2
326,326,Baker city,US,52.59,81,0,6.91,44.7749,-117.8344
327,327,Juigalpa,NI,77.05,83,100,3.31,12.1063,-85.3645
328,328,Ushuaia,AR,47.86,49,75,17.27,-54.8,-68.3
329,329,Yellowknife,CA,73.56,25,79,17.0,62.456,-114.3525
330,330,Tuktoyaktuk,CA,32.41,75,36,9.24,69.4541,-133.0374
331,331,Bac lieu,VN,85.59,68,6,10.45,9.285,105.7244
332,332,Half moon bay,US,76.03,85,100,13.8,37.4636,-122.4286
333,333,Torbay,CA,48.27,70,75,11.5,47.6666,-52.7314
334,334,Bluff,NZ,55.8,71,4,6.76,-46.6,168.3333
335,335,Mahebourg,MU,69.26,79,40,9.82,-20.4081,57.7
336,336,Pampa,US,88.75,57,0,10.36,35.5362,-100.9599
337,337,Rikitea,PF,73.31,79,62,19.06,-23.1203,-134.9692
338,338,Severo-kurilsk,RU,46.83,81,80,2.08,50.6789,156.125
339,339,Mahebourg,MU,69.26,79,40,9.82,-20.4081,57.7
340,340,Bredasdorp,ZA,54.66,61,3,3.98,-34.5322,20.0403
341,341,Saint-philippe,RE,71.19,66,55,7.25,-21.3585,55.7679
342,342,Tasiilaq,GL,39.36,62,5,4.43,65.6145,-37.6368
343,343,Dikson,RU,30.94,91,100,12.1,73.5069,80.5464
344,344,Geraldton,CA,47.82,92,91,4.65,49.7267,-86.9484
345,345,Hasaki,JP,63.0,87,100,21.97,35.7333,140.8333
346,346,Punta arenas,CL,44.71,61,75,13.8,-53.15,-70.9167
347,347,Catamarca,AR,52.77,66,35,1.99,-28.4696,-65.7852
348,348,Lebu,CL,50.92,88,100,4.12,-37.6167,-73.65
349,349,Cartagena,CO,83.82,79,75,3.44,10.3997,-75.5144
350,350,Thompson,CA,56.97,61,89,0.98,55.7435,-97.8558
351,351,Severo-kurilsk,RU,46.83,81,80,2.08,50.6789,156.125
352,352,Dingle,IE,55.42,94,100,3.74,52.1408,-10.2689
353,353,Samarai,PG,81.95,77,96,12.12,-10.6167,150.6667
354,354,Mar del plata,AR,48.09,90,100,5.75,-38.0023,-57.5575
355,355,Yellowknife,CA,73.56,25,79,17.0,62.456,-114.3525
356,356,Baherden,TM,82.18,14,0,5.55,38.4362,57.4316
357,357,Rikitea,PF,73.31,79,62,19.06,-23.1203,-134.9692
358,358,Punta arenas,CL,44.71,61,75,13.8,-53.15,-70.9167
359,359,Hellvik,NO,52.77,80,34,1.99,59.9156,5.781
360,360,Avarua,CK,80.65,78,40,13.8,-21.2078,-159.775
361,361,Esperance,AU,53.44,67,100,6.8,-33.8667,121.9
362,362,Beni suef,EG,77.4,50,1,7.85,29.0731,31.0979
363,363,Rikitea,PF,73.31,79,62,19.06,-23.1203,-134.9692
364,364,Altay,CN,53.8,58,16,1.14,47.8667,88.1167
365,365,Arraial do cabo,BR,69.06,66,0,17.34,-22.9661,-42.0278
366,366,Ushuaia,AR,47.86,49,75,17.27,-54.8,-68.3
367,367,Arraial do cabo,BR,69.06,66,0,17.34,-22.9661,-42.0278
368,368,Bambous virieux,MU,69.22,79,54,9.48,-20.3428,57.7575
369,369,Vrangel,RU,52.9,74,100,15.08,42.7297,133.0839
370,370,Bonfim,BR,75.27,91,100,3.49,3.0833,-59.95
371,371,Bull savanna,JM,76.26,91,63,10.56,17.8868,-77.5902
372,372,Kodiak,US,56.71,72,0,11.5,57.79,-152.4072
373,373,Xai-xai,MZ,69.58,68,89,18.28,-25.0519,33.6442
374,374,Puerto ayora,EC,70.56,96,100,4.0,-0.7393,-90.3518
375,375,Jaciara,BR,70.54,52,6,2.86,-15.9653,-54.9683
376,376,Khatanga,RU,32.63,77,100,7.38,71.9667,102.5
377,377,Longyearbyen,SJ,44.44,87,40,3.44,78.2186,15.6401
378,378,Lodeynoye pole,RU,48.94,97,100,5.59,60.726,33.5531
379,379,Tolon,GR,75.33,48,87,3.44,37.5202,22.8586
380,380,Ushuaia,AR,47.86,49,75,17.27,-54.8,-68.3
381,381,Ushuaia,AR,47.86,49,75,17.27,-54.8,-68.3
382,382,Petropavlovka,RU,64.78,59,100,7.2,50.6114,105.3196
383,383,Katangli,RU,61.61,49,49,5.57,51.7102,143.2326
384,384,Krasnoselkup,RU,37.87,47,8,8.16,65.7,82.4667
385,385,Arauco,CL,52.59,98,100,3.56,-37.2463,-73.3175
386,386,Rikitea,PF,73.31,79,62,19.06,-23.1203,-134.9692
387,387,Behbahan,IR,88.66,13,1,3.65,30.5959,50.2417
388,388,Bredasdorp,ZA,54.66,61,3,3.98,-34.5322,20.0403
389,389,Bulaevo,KZ,56.53,53,66,4.72,54.9056,70.4439
390,390,Saldanha,ZA,63.59,36,0,7.38,-33.0117,17.9442
391,391,Tabou,CI,77.04,87,100,5.68,4.423,-7.3528
392,392,Rikitea,PF,73.31,79,62,19.06,-23.1203,-134.9692
393,393,Krasnovishersk,RU,54.01,69,100,6.91,60.4078,57.082
394,394,Puerto ayora,EC,70.56,96,100,4.0,-0.7393,-90.3518
395,395,Butaritari,KI,82.24,71,69,12.84,3.0707,172.7902
396,396,Hualmay,PE,64.42,86,100,14.27,-11.0964,-77.6139
397,397,Bom jesus,BR,71.65,68,0,4.18,-9.0744,-44.3586
398,398,Mao,TD,83.59,41,76,6.64,14.1212,15.3103
399,399,Westerly,US,62.22,83,0,3.44,41.3776,-71.8273
400,400,San patricio,MX,78.91,73,40,9.22,19.2167,-104.7
401,401,Ukiah,US,72.45,67,20,5.01,39.1502,-123.2078
402,402,Hithadhoo,MV,82.47,70,82,4.0,-0.6,73.0833
403,403,Albany,AU,54.82,77,100,5.99,-35.0169,117.8917
404,404,Carnarvon,AU,70.34,51,0,6.35,-24.8667,113.6333
405,405,Punta arenas,CL,44.71,61,75,13.8,-53.15,-70.9167
406,406,Duncan,US,82.29,72,0,14.97,34.5023,-97.9578
407,407,Vestmannaeyjar,IS,48.33,88,100,7.4,63.4427,-20.2734
408,408,Houma,US,79.0,87,0,4.61,29.5958,-90.7195
409,409,Todos santos,MX,70.3,69,0,6.78,23.45,-110.2167
410,410,Te anau,NZ,54.86,76,11,2.93,-45.4167,167.7167
411,411,Mayo,CA,59.0,82,100,4.61,63.5927,-135.8998
412,412,Ushuaia,AR,47.86,49,75,17.27,-54.8,-68.3
413,413,Mahebourg,MU,69.26,79,40,9.82,-20.4081,57.7
414,414,Bluff,NZ,55.8,71,4,6.76,-46.6,168.3333
415,415,Kalangala,UG,71.44,65,30,11.23,-0.3089,32.225
416,416,Aksay,KZ,64.94,80,62,7.0,51.1678,52.995
417,417,Rikitea,PF,73.31,79,62,19.06,-23.1203,-134.9692
418,418,Hobart,AU,49.86,76,75,26.46,-42.8794,147.3294
419,419,Hermanus,ZA,62.02,49,11,7.2,-34.4187,19.2345
420,420,Nyurba,RU,70.14,66,100,1.16,63.2842,118.3319
421,421,Tasiilaq,GL,39.36,62,5,4.43,65.6145,-37.6368
422,422,Bluff,NZ,55.8,71,4,6.76,-46.6,168.3333
423,423,Faanui,PF,80.04,76,60,15.64,-16.4833,-151.75
424,424,Camacha,PT,62.02,77,20,10.36,33.0833,-16.3333
425,425,Katsuura,JP,64.42,91,100,24.45,35.1333,140.3
426,426,Rikitea,PF,73.31,79,62,19.06,-23.1203,-134.9692
427,427,Camacha,PT,62.02,77,20,10.36,33.0833,-16.3333
428,428,Chingirlau,KZ,63.68,85,85,8.43,51.095,54.0814
429,429,Saint george,BM,76.78,94,100,24.16,32.3817,-64.6781
430,430,New norfolk,AU,49.5,84,98,8.01,-42.7826,147.0587
431,431,Hobart,AU,49.86,76,75,26.46,-42.8794,147.3294
432,432,Coruripe,BR,75.04,86,96,18.95,-10.1256,-36.1756
433,433,Kieta,PG,85.05,66,80,4.34,-6.2167,155.6333
434,434,Albany,AU,54.82,77,100,5.99,-35.0169,117.8917
435,435,Saint-philippe,RE,71.19,66,55,7.25,-21.3585,55.7679
436,436,Torshavn,FO,51.19,93,77,12.77,62.0097,-6.7716
437,437,Ushuaia,AR,47.86,49,75,17.27,-54.8,-68.3
438,438,Scarborough,GB,50.32,92,100,5.99,54.2797,-0.4044
439,439,Le port,RE,71.6,54,23,7.78,-20.9373,55.2919
440,440,Bredasdorp,ZA,54.66,61,3,3.98,-34.5322,20.0403
441,441,Mbandaka,CD,71.67,87,100,2.89,0.0487,18.2603
442,442,Hobart,AU,49.86,76,75,26.46,-42.8794,147.3294
443,443,Mar del plata,AR,48.09,90,100,5.75,-38.0023,-57.5575
444,444,Ushuaia,AR,47.86,49,75,17.27,-54.8,-68.3
445,445,Leningradskiy,RU,35.98,75,66,10.27,69.3833,178.4167
446,446,Coihaique,CL,39.15,93,100,3.44,-45.5752,-72.0662
447,447,Ushuaia,AR,47.86,49,75,17.27,-54.8,-68.3
448,448,Port elizabeth,ZA,55.38,82,7,6.13,-33.918,25.5701
449,449,Punta arenas,CL,44.71,61,75,13.8,-53.15,-70.9167
450,450,Bambous virieux,MU,69.22,79,54,9.48,-20.3428,57.7575
451,451,Victoria,SC,80.06,78,100,8.34,-4.6167,55.45
452,452,Chuy,UY,55.42,94,100,3.18,-33.6971,-53.4616
453,453,Homer,US,67.77,71,0,14.97,59.6425,-151.5483
454,454,Arraial do cabo,BR,69.06,66,0,17.34,-22.9661,-42.0278
455,455,Kodiak,US,56.71,72,0,11.5,57.79,-152.4072
456,456,Tasiilaq,GL,39.36,62,5,4.43,65.6145,-37.6368
457,457,Victoria,SC,80.06,78,100,8.34,-4.6167,55.45
458,458,Suslovo,RU,42.44,88,100,11.92,56.2167,88.1167
459,459,Eyemouth,GB,50.81,89,100,6.53,55.8713,-2.0901
460,460,Kuantan,MY,82.98,72,92,4.43,3.8077,103.326
461,461,Cape town,ZA,64.11,51,4,3.67,-33.9258,18.4232
462,462,Appingedam,NL,60.98,91,100,7.0,53.3217,6.8583
463,463,Rockhampton,AU,75.09,64,75,10.36,-23.3833,150.5
464,464,Puerto ayora,EC,70.56,96,100,4.0,-0.7393,-90.3518
465,465,Saldanha,ZA,63.59,36,0,7.38,-33.0117,17.9442
466,466,Puerto ayora,EC,70.56,96,100,4.0,-0.7393,-90.3518
467,467,Almaznyy,RU,58.35,96,30,10.74,48.0448,40.045
468,468,Nikolskoye,RU,51.8,94,100,4.43,59.7035,30.7861
469,469,Qaanaaq,GL,25.81,78,81,5.55,77.484,-69.3632
470,470,Dembi dolo,ET,58.48,78,90,3.6,8.5333,34.8
471,471,Rikitea,PF,73.31,79,62,19.06,-23.1203,-134.9692
472,472,Iquitos,PE,77.04,94,40,2.3,-3.7481,-73.2472
473,473,Shingu,JP,64.67,96,100,14.58,33.7333,135.9833
474,474,Somerset east,ZA,51.75,51,1,7.0,-32.7217,25.588
475,475,Lagos,PT,62.98,72,13,12.01,37.102,-8.6742
476,476,Shushtar,IR,93.15,13,9,5.53,32.0455,48.8567
477,477,Kruisfontein,ZA,53.02,77,7,7.0,-34.0033,24.7314
478,478,Alofi,NU,79.72,77,65,7.2,-19.0595,-169.9187
479,479,Basco,PH,84.85,79,99,20.09,20.4487,121.9702
480,480,Lagoa,PT,63.93,93,89,16.69,39.05,-27.9833
481,481,Thompson,CA,56.97,61,89,0.98,55.7435,-97.8558
482,482,Yellowknife,CA,73.56,25,79,17.0,62.456,-114.3525
483,483,Fairbanks,US,73.6,19,40,11.5,64.8378,-147.7164
484,484,Rikitea,PF,73.31,79,62,19.06,-23.1203,-134.9692
485,485,Na klang,TH,82.94,70,99,4.05,17.3072,102.1889
486,486,Georgetown,SH,78.01,69,34,10.38,-7.9333,-14.4167
487,487,Vaini,TO,75.96,79,45,7.43,-21.2,-175.2
488,488,Lorengau,PG,85.41,59,28,7.07,-2.0226,147.2712
489,489,Hualmay,PE,64.42,86,100,14.27,-11.0964,-77.6139
490,490,Naze,JP,73.63,94,100,23.38,28.3667,129.4833
491,491,Busselton,AU,58.06,61,100,10.22,-33.65,115.3333
492,492,Saldanha,ZA,63.59,36,0,7.38,-33.0117,17.9442
493,493,Yar-sale,RU,41.04,52,100,3.71,66.8333,70.8333
494,494,Ushuaia,AR,47.86,49,75,17.27,-54.8,-68.3
495,495,Ahipara,NZ,63.07,69,7,7.34,-35.1667,173.1667
496,496,Souillac,MU,71.26,80,21,8.57,-20.5167,57.5167
497,497,Saint george,BM,76.78,94,100,24.16,32.3817,-64.6781
498,498,Busselton,AU,58.06,61,100,10.22,-33.65,115.3333
499,499,Katsuura,JP,64.42,91,100,24.45,35.1333,140.3
500,500,Rikitea,PF,73.31,79,62,19.06,-23.1203,-134.9692
501,501,Sao filipe,CV,75.6,74,2,15.12,14.8961,-24.4956
502,502,Ericeira,PT,63.3,89,81,11.83,38.9627,-9.4156
503,503,Busselton,AU,58.06,61,100,10.22,-33.65,115.3333
504,504,Jamestown,SH,64.02,71,0,3.65,-15.9387,-5.7168
505,505,Albany,AU,54.82,77,100,5.99,-35.0169,117.8917
506,506,Pochutla,MX,81.82,84,100,4.21,15.7432,-96.4661
507,507,Nanga eboko,CM,67.77,98,100,2.71,4.6833,12.3667
508,508,Kapaa,US,82.38,70,0,10.36,22.0752,-159.319
509,509,Te anau,NZ,54.86,76,11,2.93,-45.4167,167.7167
510,510,Sorong,ID,82.89,70,12,1.28,-0.8833,131.25
511,511,Rikitea,PF,73.31,79,62,19.06,-23.1203,-134.9692
512,512,Yellowknife,CA,73.56,25,79,17.0,62.456,-114.3525
513,513,Atuona,PF,78.48,72,13,15.35,-9.8,-139.0333
514,514,Mahon,ES,68.56,94,0,10.36,39.8885,4.2658
515,515,Saint-philippe,RE,71.19,66,55,7.25,-21.3585,55.7679
516,516,Huarmey,PE,65.98,85,72,13.96,-10.0681,-78.1522
517,517,Chuy,UY,55.42,94,100,3.18,-33.6971,-53.4616
518,518,Saldanha,ZA,63.59,36,0,7.38,-33.0117,17.9442
519,519,Cape town,ZA,64.11,51,4,3.67,-33.9258,18.4232
520,520,Rikitea,PF,73.31,79,62,19.06,-23.1203,-134.9692
521,521,Punta arenas,CL,44.71,61,75,13.8,-53.15,-70.9167
522,522,Hermanus,ZA,62.02,49,11,7.2,-34.4187,19.2345
523,523,Bethel,US,64.9,72,0,0.0,41.3712,-73.414
524,524,Kushiro,JP,50.83,75,95,8.57,42.975,144.3747
525,525,Vaini,TO,75.96,79,45,7.43,-21.2,-175.2
526,526,Hwange,ZW,55.56,58,7,5.12,-18.3693,26.5019
527,527,Grindavik,IS,43.9,65,75,11.5,63.8424,-22.4338
528,528,Namibe,AO,71.96,45,42,3.67,-15.1961,12.1522
529,529,Ushuaia,AR,47.86,49,75,17.27,-54.8,-68.3
530,530,Faanui,PF,80.04,76,60,15.64,-16.4833,-151.75
531,531,Clyde river,CA,30.43,89,15,4.0,70.4692,-68.5914
532,532,Barrow,US,30.22,80,100,21.85,71.2906,-156.7887
533,533,Vaini,TO,75.96,79,45,7.43,-21.2,-175.2
534,534,Busselton,AU,58.06,61,100,10.22,-33.65,115.3333
535,535,Rikitea,PF,73.31,79,62,19.06,-23.1203,-134.9692
536,536,Hofn,IS,52.77,72,100,7.67,64.2539,-15.2082
537,537,Yellowknife,CA,73.56,25,79,17.0,62.456,-114.3525
538,538,Bayji,IQ,90.0,16,88,7.56,34.9311,43.487
539,539,Dajal,PK,97.95,15,0,4.88,29.5577,70.3762
540,540,Jamestown,SH,64.02,71,0,3.65,-15.9387,-5.7168
541,541,Ullapool,GB,50.34,87,59,5.5,57.8987,-5.1604
542,542,Kodiak,US,56.71,72,0,11.5,57.79,-152.4072
543,543,Bluff,NZ,55.8,71,4,6.76,-46.6,168.3333
544,544,Vostok,RU,63.5,35,78,7.4,46.4856,135.8833
545,545,Antoniny,UA,50.63,94,0,3.13,49.8097,26.8771
546,546,Santo antonio da charneca,PT,63.09,82,20,5.75,38.6256,-9.0304
547,547,Jamestown,SH,64.02,71,0,3.65,-15.9387,-5.7168
548,548,Tasiilaq,GL,39.36,62,5,4.43,65.6145,-37.6368
549,549,Saint-philippe,RE,71.19,66,55,7.25,-21.3585,55.7679
550,550,Port hardy,CA,53.89,81,97,3.02,50.6996,-127.4199
551,551,Presidencia roque saenz pena,AR,64.2,99,100,4.34,-26.7852,-60.4388
552,552,Yamethin,MM,85.19,61,77,9.55,20.4333,96.15
553,553,Klaksvik,FO,50.92,89,87,8.14,62.2266,-6.589
554,554,Ostrovnoy,RU,52.66,82,96,7.7,68.0531,39.5131
555,555,Cape town,ZA,64.11,51,4,3.67,-33.9258,18.4232
556,556,Soyo,AO,73.04,93,11,3.33,-6.1349,12.3689
557,557,Ushuaia,AR,47.86,49,75,17.27,-54.8,-68.3
558,558,Westport,IE,52.83,86,100,5.08,53.8,-9.5167
559,559,Ushuaia,AR,47.86,49,75,17.27,-54.8,-68.3
560,560,Tiksi,RU,42.71,78,78,4.54,71.6872,128.8694
561,561,Yenagoa,NG,72.14,97,100,1.21,4.9247,6.2642
562,562,Vestmannaeyjar,IS,48.33,88,100,7.4,63.4427,-20.2734
563,563,Valdivia,CL,48.29,94,100,5.5,-39.8142,-73.2459
564,564,Mindelo,CV,72.95,78,40,28.77,16.8901,-24.9804
565,565,Ostrovnoy,RU,52.66,82,96,7.7,68.0531,39.5131
566,566,Beringovskiy,RU,50.34,60,97,7.92,63.05,179.3167
567,567,Matay,EG,78.22,46,10,9.78,28.419,30.7792
568,568,Rikitea,PF,73.31,79,62,19.06,-23.1203,-134.9692
569,569,Bambous virieux,MU,69.22,79,54,9.48,-20.3428,57.7575
570,570,Albany,AU,54.82,77,100,5.99,-35.0169,117.8917
571,571,Castro,CL,47.68,93,100,20.71,-42.4721,-73.7732
572,572,Punta arenas,CL,44.71,61,75,13.8,-53.15,-70.9167
573,573,Rio grande,BR,59.95,94,100,3.27,-32.035,-52.0986
574,574,New norfolk,AU,49.5,84,98,8.01,-42.7826,147.0587
575,575,Santa maria,CV,72.19,83,20,26.46,16.6,-22.9
576,576,Albany,AU,54.82,77,100,5.99,-35.0169,117.8917
577,577,Goianesia,BR,68.58,54,29,5.35,-15.3175,-49.1175
578,578,Busselton,AU,58.06,61,100,10.22,-33.65,115.3333
579,579,Busselton,AU,58.06,61,100,10.22,-33.65,115.3333
580,580,Lewisporte,CA,45.55,71,99,6.02,49.2499,-55.0482
581,581,Kota bahru,MY,82.74,73,62,3.33,6.1333,102.2386
582,582,Salalah,OM,84.29,79,40,3.44,17.0151,54.0924
583,583,Bubaque,GW,79.81,80,81,8.32,11.2833,-15.8333
584,584,Hobart,AU,49.86,76,75,26.46,-42.8794,147.3294
585,585,Hermanus,ZA,62.02,49,11,7.2,-34.4187,19.2345
586,586,Bredasdorp,ZA,54.66,61,3,3.98,-34.5322,20.0403
587,587,Carnarvon,AU,70.34,51,0,6.35,-24.8667,113.6333
588,588,Florence,US,75.24,65,0,3.44,34.0502,-79.6665
589,589,Bredasdorp,ZA,54.66,61,3,3.98,-34.5322,20.0403
590,590,Mount gambier,AU,48.22,78,93,10.65,-37.8333,140.7667
591,591,Roma,AU,64.18,42,2,14.88,-26.5833,148.7833
592,592,Gannan,CN,67.05,38,36,18.01,47.9147,123.5031
593,593,Hermanus,ZA,62.02,49,11,7.2,-34.4187,19.2345
594,594,Irugur,IN,79.03,89,75,4.61,11.0167,77.0667
595,595,Acapulco,MX,82.22,74,75,6.91,16.8634,-99.8901
596,596,Tasiilaq,GL,39.36,62,5,4.43,65.6145,-37.6368
597,597,Ushuaia,AR,47.86,49,75,17.27,-54.8,-68.3
598,598,Necochea,AR,47.43,71,19,7.52,-38.5473,-58.7368
599,599,Puerto ayora,EC,70.56,96,100,4.0,-0.7393,-90.3518
600,600,Bluff,NZ,55.8,71,4,6.76,-46.6,168.3333
601,601,Jamestown,SH,64.02,71,0,3.65,-15.9387,-5.7168
602,602,Lorengau,PG,85.41,59,28,7.07,-2.0226,147.2712
603,603,Pevek,RU,33.78,81,36,10.09,69.7008,170.3133
604,604,Zhaoyuan,CN,72.52,59,41,13.29,37.3592,120.3964
605,605,Fort nelson,CA,56.66,88,100,7.45,58.8053,-122.7002
606,606,Ontario,US,83.1,57,20,13.8,34.0633,-117.6509
607,607,Provideniya,RU,42.91,75,0,11.18,64.3833,-173.3
608,608,Lebu,CL,50.92,88,100,4.12,-37.6167,-73.65
609,609,Ribeira grande,PT,65.16,94,81,11.72,38.5167,-28.7
610,610,Punta arenas,CL,44.71,61,75,13.8,-53.15,-70.9167
611,611,Khash,IR,69.87,11,0,3.76,28.2211,61.2158
612,612,Bethel,US,64.9,72,0,0.0,41.3712,-73.414
613,613,Puerto ayora,EC,70.56,96,100,4.0,-0.7393,-90.3518
614,614,Hermanus,ZA,62.02,49,11,7.2,-34.4187,19.2345
615,615,Port alfred,ZA,54.18,91,8,11.41,-33.5906,26.891
616,616,Lompoc,US,77.77,85,100,21.99,34.6391,-120.4579
617,617,Weyburn,CA,57.83,59,100,12.41,49.6668,-103.8511
618,618,San patricio,MX,78.91,73,40,9.22,19.2167,-104.7
619,619,Kununurra,AU,89.58,45,87,9.22,-15.7667,128.7333
620,620,Mpika,ZM,50.79,83,8,7.27,-11.8343,31.4529
621,621,Ambovombe,MG,66.29,88,17,7.94,-25.1667,46.0833
622,622,Ambilobe,MG,65.46,84,14,3.53,-13.2,49.05
623,623,Krasnoselkup,RU,37.87,47,8,8.16,65.7,82.4667
624,624,Dalbandin,PK,81.01,9,0,1.45,28.8947,64.4101
625,625,Clyde river,CA,30.43,89,15,4.0,70.4692,-68.5914
626,626,Sitka,US,60.69,67,75,8.05,57.0531,-135.33
627,627,Mar del plata,AR,48.09,90,100,5.75,-38.0023,-57.5575
628,628,Hermanus,ZA,62.02,49,11,7.2,-34.4187,19.2345
629,629,Castro,CL,47.68,93,100,20.71,-42.4721,-73.7732
630,630,Pevek,RU,33.78,81,36,10.09,69.7008,170.3133
631,631,Albany,AU,54.82,77,100,5.99,-35.0169,117.8917
632,632,Hobart,AU,49.86,76,75,26.46,-42.8794,147.3294
633,633,Bredasdorp,ZA,54.66,61,3,3.98,-34.5322,20.0403
634,634,Ossora,RU,49.1,80,99,11.61,59.2353,163.0719
635,635,Ushuaia,AR,47.86,49,75,17.27,-54.8,-68.3
636,636,Kijang,ID,85.21,70,85,6.89,0.9,104.6333
637,637,Loa janan,ID,82.15,84,96,0.29,-0.583,117.095
638,638,Saint george,BM,76.78,94,100,24.16,32.3817,-64.6781
639,639,Prince rupert,CA,55.49,94,100,4.61,54.3161,-130.3201
640,640,Laguna,BR,61.99,94,100,8.12,-28.4825,-48.7808
641,641,Suez,EG,71.1,76,0,7.09,29.9737,32.5263
642,642,Busselton,AU,58.06,61,100,10.22,-33.65,115.3333
643,643,Sri aman,MY,79.66,87,87,1.07,1.2376,111.4621
644,644,Hilo,US,87.28,86,100,4.61,19.7297,-155.09
645,645,Port alfred,ZA,54.18,91,8,11.41,-33.5906,26.891
646,646,Grand gaube,MU,69.39,78,67,1.99,-20.0064,57.6608
647,647,Necochea,AR,47.43,71,19,7.52,-38.5473,-58.7368
648,648,Nikolskoye,RU,51.8,94,100,4.43,59.7035,30.7861
649,649,Nanortalik,GL,43.34,78,100,4.16,60.1432,-45.2371
650,650,Ushuaia,AR,47.86,49,75,17.27,-54.8,-68.3
651,651,Port hardy,CA,53.89,81,97,3.02,50.6996,-127.4199
652,652,Effingham,US,76.95,90,2,6.53,32.3669,-81.3332
653,653,Rikitea,PF,73.31,79,62,19.06,-23.1203,-134.9692
654,654,Jamestown,SH,64.02,71,0,3.65,-15.9387,-5.7168
655,655,Raudeberg,NO,45.27,91,17,11.16,61.9875,5.1352
656,656,Ushuaia,AR,47.86,49,75,17.27,-54.8,-68.3
657,657,Ushuaia,AR,47.86,49,75,17.27,-54.8,-68.3
658,658,Umm kaddadah,SD,80.73,17,80,0.98,13.6017,26.6876
659,659,Nortelandia,BR,75.13,48,31,4.47,-14.4547,-56.8028
660,660,Nemuro,JP,44.73,84,42,9.4,43.3236,145.575
661,661,Thompson,CA,56.97,61,89,0.98,55.7435,-97.8558
662,662,East london,ZA,61.0,79,9,12.19,-33.0153,27.9116
663,663,Hobart,AU,49.86,76,75,26.46,-42.8794,147.3294
664,664,Makakilo city,US,82.72,58,40,12.66,21.3469,-158.0858
665,665,Pasni,PK,81.18,83,0,6.91,25.2631,63.471
666,666,Hermanus,ZA,62.02,49,11,7.2,-34.4187,19.2345
667,667,Pochutla,MX,81.82,84,100,4.21,15.7432,-96.4661
668,668,Ushuaia,AR,47.86,49,75,17.27,-54.8,-68.3
669,669,Mar del plata,AR,48.09,90,100,5.75,-38.0023,-57.5575
670,670,Barrow,US,30.22,80,100,21.85,71.2906,-156.7887
671,671,Petropavlovsk-kamchatskiy,RU,59.59,48,40,15.66,53.0452,158.6483
672,672,Kirakira,SB,83.43,77,48,12.5,-10.4544,161.9205
673,673,Atuona,PF,78.48,72,13,15.35,-9.8,-139.0333
674,674,Port alfred,ZA,54.18,91,8,11.41,-33.5906,26.891
675,675,Diego de almagro,CL,52.92,66,39,2.55,-26.3667,-70.05
676,676,Ponta do sol,CV,73.18,79,16,15.68,17.1994,-25.0919
677,677,Kapaa,US,82.38,70,0,10.36,22.0752,-159.319
678,678,Cortes,PH,82.71,71,91,4.79,9.2797,126.1911
679,679,Hasaki,JP,63.0,87,100,21.97,35.7333,140.8333
680,680,Cape town,ZA,64.11,51,4,3.67,-33.9258,18.4232
681,681,Punta arenas,CL,44.71,61,75,13.8,-53.15,-70.9167
682,682,Bredasdorp,ZA,54.66,61,3,3.98,-34.5322,20.0403
683,683,Jamestown,SH,64.02,71,0,3.65,-15.9387,-5.7168
684,684,Dunedin,NZ,56.98,63,0,4.56,-45.8742,170.5036
685,685,Saldanha,ZA,63.59,36,0,7.38,-33.0117,17.9442
686,686,Rikitea,PF,73.31,79,62,19.06,-23.1203,-134.9692
687,687,Havelock,US,73.94,60,3,8.41,34.8791,-76.9013
688,688,Atuona,PF,78.48,72,13,15.35,-9.8,-139.0333
689,689,Mar del plata,AR,48.09,90,100,5.75,-38.0023,-57.5575
690,690,Rikitea,PF,73.31,79,62,19.06,-23.1203,-134.9692
691,691,Hobart,AU,49.86,76,75,26.46,-42.8794,147.3294
692,692,Kodiak,US,56.71,72,0,11.5,57.79,-152.4072
693,693,Huarmey,PE,65.98,85,72,13.96,-10.0681,-78.1522
694,694,Tharad,IN,84.87,58,43,11.81,24.3961,71.6267
695,695,Tuktoyaktuk,CA,32.41,75,36,9.24,69.4541,-133.0374
696,696,Atuona,PF,78.48,72,13,15.35,-9.8,-139.0333
697,697,Qaanaaq,GL,25.81,78,81,5.55,77.484,-69.3632
698,698,Ushuaia,AR,47.86,49,75,17.27,-54.8,-68.3
699,699,Albany,AU,54.82,77,100,5.99,-35.0169,117.8917
700,700,Madang,PG,85.39,64,94,4.07,-5.2246,145.7966
701,701,Kambove,CD,49.32,73,0,6.78,-10.8764,26.5969
702,702,Rikitea,PF,73.31,79,62,19.06,-23.1203,-134.9692
703,703,Kapaa,US,82.38,70,0,10.36,22.0752,-159.319
704,704,Takoradi,GH,76.57,89,98,7.78,4.8845,-1.7554
705,705,Saint-philippe,RE,71.19,66,55,7.25,-21.3585,55.7679
706,706,Dondo,MZ,61.41,85,40,8.86,-19.6094,34.7431
707,707,Killybegs,IE,51.06,84,100,5.93,54.6333,-8.45
708,708,Khandyga,RU,82.4,26,12,4.81,62.6667,135.6
709,709,Mar del plata,AR,48.09,90,100,5.75,-38.0023,-57.5575
710,710,Kodiak,US,56.71,72,0,11.5,57.79,-152.4072
711,711,Sayyan,YE,60.31,28,1,4.68,15.1718,44.3244
712,712,Hermanus,ZA,62.02,49,11,7.2,-34.4187,19.2345
713,713,Port alfred,ZA,54.18,91,8,11.41,-33.5906,26.891
714,714,Busselton,AU,58.06,61,100,10.22,-33.65,115.3333
715,715,Jamestown,SH,64.02,71,0,3.65,-15.9387,-5.7168
716,716,Saint-philippe,RE,71.19,66,55,7.25,-21.3585,55.7679
717,717,Saskylakh,RU,37.47,57,100,5.3,71.9167,114.0833
718,718,Jamestown,SH,64.02,71,0,3.65,-15.9387,-5.7168
719,719,East london,ZA,61.0,79,9,12.19,-33.0153,27.9116
720,720,Vestmannaeyjar,IS,48.33,88,100,7.4,63.4427,-20.2734
721,721,Georgetown,SH,78.01,69,34,10.38,-7.9333,-14.4167
722,722,Sihora,IN,92.53,15,55,10.6,23.4833,80.1167
723,723,Saint-philippe,RE,71.19,66,55,7.25,-21.3585,55.7679
724,724,Dingle,IE,55.42,94,100,3.74,52.1408,-10.2689
725,725,Tasiilaq,GL,39.36,62,5,4.43,65.6145,-37.6368
726,726,Bengkulu,ID,79.65,75,100,2.71,-3.8004,102.2655
727,727,Cape town,ZA,64.11,51,4,3.67,-33.9258,18.4232
728,728,Tornio,FI,44.62,66,10,9.19,65.8481,24.1466
729,729,Cape town,ZA,64.11,51,4,3.67,-33.9258,18.4232
730,730,Komsomolskiy,RU,67.1,82,74,6.2,43.9783,46.6985
731,731,Rikitea,PF,73.31,79,62,19.06,-23.1203,-134.9692
732,732,Vigrestad,NO,48.96,80,42,6.4,58.5667,5.7
733,733,Georgetown,SH,78.01,69,34,10.38,-7.9333,-14.4167
734,734,Bredasdorp,ZA,54.66,61,3,3.98,-34.5322,20.0403
735,735,Bredasdorp,ZA,54.66,61,3,3.98,-34.5322,20.0403
736,736,Port alfred,ZA,54.18,91,8,11.41,-33.5906,26.891
737,737,Tutoia,BR,76.06,90,100,10.31,-2.7619,-42.2744
738,738,Thompson,CA,56.97,61,89,0.98,55.7435,-97.8558
739,739,Mapiripan,CO,72.86,95,100,3.33,2.8892,-72.1256
740,740,Busselton,AU,58.06,61,100,10.22,-33.65,115.3333
741,741,Castro,CL,47.68,93,100,20.71,-42.4721,-73.7732
742,742,Celestun,MX,79.48,79,27,10.71,20.8667,-90.4
743,743,Kariba,ZW,59.22,67,1,6.8,-16.5167,28.8
744,744,Celestun,MX,79.48,79,27,10.71,20.8667,-90.4
745,745,Cape town,ZA,64.11,51,4,3.67,-33.9258,18.4232
746,746,Sosnovo-ozerskoye,RU,58.33,66,95,5.95,52.5249,111.5418
747,747,Ilulissat,GL,41.02,36,0,16.11,69.2167,-51.1
748,748,Rikitea,PF,73.31,79,62,19.06,-23.1203,-134.9692
749,749,Ewa beach,US,84.15,57,40,12.66,21.3156,-158.0072
750,750,Cape town,ZA,64.11,51,4,3.67,-33.9258,18.4232
751,751,Khash,IR,69.87,11,0,3.76,28.2211,61.2158
752,752,Belousovka,KZ,50.85,71,40,0.0,50.1339,82.5239
753,753,Miri,MY,82.22,79,72,3.85,4.4148,114.0089
754,754,Bethel,US,64.9,72,0,0.0,41.3712,-73.414
755,755,Souillac,MU,71.26,80,21,8.57,-20.5167,57.5167
756,756,Kondagaon,IN,88.32,41,58,9.24,19.6,81.6667
757,757,New norfolk,AU,49.5,84,98,8.01,-42.7826,147.0587
758,758,Severo-kurilsk,RU,46.83,81,80,2.08,50.6789,156.125
759,759,Korla,CN,78.06,13,0,19.01,41.7597,86.1469
760,760,Hermanus,ZA,62.02,49,11,7.2,-34.4187,19.2345
761,761,Ballina,IE,51.71,89,100,3.33,54.1167,-9.1667
762,762,Butaritari,KI,82.24,71,69,12.84,3.0707,172.7902
763,763,Grand forks,US,62.33,48,75,12.66,47.9417,-97.4337
764,764,New norfolk,AU,49.5,84,98,8.01,-42.7826,147.0587
765,765,Ulaangom,MN,60.57,30,32,22.79,49.9811,92.0667
766,766,Bethel,US,64.9,72,0,0.0,41.3712,-73.414
767,767,Avarua,CK,80.65,78,40,13.8,-21.2078,-159.775
768,768,Torbay,CA,48.27,70,75,11.5,47.6666,-52.7314
769,769,Lagoa,PT,63.93,93,89,16.69,39.05,-27.9833
770,770,Busselton,AU,58.06,61,100,10.22,-33.65,115.3333
771,771,Jamestown,SH,64.02,71,0,3.65,-15.9387,-5.7168
772,772,Uji,JP,73.09,85,100,18.54,34.8833,135.8
773,773,Jamestown,SH,64.02,71,0,3.65,-15.9387,-5.7168
774,774,Punta arenas,CL,44.71,61,75,13.8,-53.15,-70.9167
775,775,Luang prabang,LA,83.39,74,100,2.55,19.8856,102.1347
776,776,Kruisfontein,ZA,53.02,77,7,7.0,-34.0033,24.7314
777,777,Saint george,BM,76.78,94,100,24.16,32.3817,-64.6781
778,778,Albany,AU,54.82,77,100,5.99,-35.0169,117.8917
779,779,Mount gambier,AU,48.22,78,93,10.65,-37.8333,140.7667
780,780,Portland,AU,51.78,69,79,16.15,-38.3333,141.6
781,781,Kerema,PG,83.19,72,36,5.26,-7.9631,145.7785
782,782,Ushuaia,AR,47.86,49,75,17.27,-54.8,-68.3
783,783,Champerico,GT,80.44,81,97,6.11,14.3,-91.9167
784,784,Albany,AU,54.82,77,100,5.99,-35.0169,117.8917
785,785,Hilo,US,87.28,86,100,4.61,19.7297,-155.09
786,786,Rikitea,PF,73.31,79,62,19.06,-23.1203,-134.9692
787,787,Jamestown,SH,64.02,71,0,3.65,-15.9387,-5.7168
788,788,Ushuaia,AR,47.86,49,75,17.27,-54.8,-68.3
789,789,Belaya gora,RU,61.05,27,0,10.25,68.5333,146.4167
790,790,Chuy,UY,55.42,94,100,3.18,-33.6971,-53.4616
791,791,Rikitea,PF,73.31,79,62,19.06,-23.1203,-134.9692
792,792,Busselton,AU,58.06,61,100,10.22,-33.65,115.3333
793,793,Puerto ayora,EC,70.56,96,100,4.0,-0.7393,-90.3518
794,794,Hilo,US,87.28,86,100,4.61,19.7297,-155.09
795,795,Bowen,AU,77.68,68,100,4.52,-20.0167,148.2333
796,796,Bubaque,GW,79.81,80,81,8.32,11.2833,-15.8333
797,797,Bollnas,SE,42.28,73,13,2.53,61.3482,16.3946
798,798,Busselton,AU,58.06,61,100,10.22,-33.65,115.3333
799,799,Faanui,PF,80.04,76,60,15.64,-16.4833,-151.75
800,800,Jamestown,SH,64.02,71,0,3.65,-15.9387,-5.7168
801,801,Hailar,CN,63.75,38,0,10.38,49.2,119.7
802,802,Alta floresta,BR,71.51,70,4,3.87,-9.8756,-56.0861
803,803,Albany,AU,54.82,77,100,5.99,-35.0169,117.8917
804,804,Nanortalik,GL,43.34,78,100,4.16,60.1432,-45.2371
805,805,Gizo,SB,81.36,76,100,9.8,-8.103,156.8419
806,806,Hilo,US,87.28,86,100,4.61,19.7297,-155.09
807,807,Hermanus,ZA,62.02,49,11,7.2,-34.4187,19.2345
808,808,Rikitea,PF,73.31,79,62,19.06,-23.1203,-134.9692
809,809,Kavieng,PG,84.36,66,14,3.67,-2.5744,150.7967
810,810,Severodvinsk,RU,55.51,96,100,10.0,64.5635,39.8302
811,811,Pochutla,MX,81.82,84,100,4.21,15.7432,-96.4661
812,812,Port alfred,ZA,54.18,91,8,11.41,-33.5906,26.891
813,813,Neiafu,TO,79.48,89,75,8.05,-18.65,-173.9833
814,814,Provideniya,RU,42.91,75,0,11.18,64.3833,-173.3
815,815,Hobart,AU,49.86,76,75,26.46,-42.8794,147.3294
816,816,Yellowknife,CA,73.56,25,79,17.0,62.456,-114.3525
817,817,Kaitangata,NZ,56.82,64,0,5.1,-46.2817,169.8464
818,818,Norman wells,CA,49.73,52,100,6.51,65.282,-126.8329
819,819,Saint-paul,RE,71.71,69,28,6.08,-21.0096,55.2707
820,820,Ushuaia,AR,47.86,49,75,17.27,-54.8,-68.3
821,821,East london,ZA,61.0,79,9,12.19,-33.0153,27.9116
822,822,Hilo,US,87.28,86,100,4.61,19.7297,-155.09
823,823,Shestakovo,RU,61.79,52,96,6.46,56.4915,103.96
824,824,Castro,CL,47.68,93,100,20.71,-42.4721,-73.7732
825,825,Port elizabeth,ZA,55.38,82,7,6.13,-33.918,25.5701
826,826,Rikitea,PF,73.31,79,62,19.06,-23.1203,-134.9692
827,827,Butaritari,KI,82.24,71,69,12.84,3.0707,172.7902
828,828,Hammerfest,NO,43.25,81,75,4.61,70.6634,23.6821
829,829,Atuona,PF,78.48,72,13,15.35,-9.8,-139.0333
830,830,Homer,US,67.77,71,0,14.97,59.6425,-151.5483
831,831,Kapaa,US,82.38,70,0,10.36,22.0752,-159.319
832,832,Castro,CL,47.68,93,100,20.71,-42.4721,-73.7732
833,833,Hithadhoo,MV,82.47,70,82,4.0,-0.6,73.0833
834,834,Filadelfia,PY,75.22,48,98,7.49,-22.35,-60.0333
835,835,Hasaki,JP,63.0,87,100,21.97,35.7333,140.8333
836,836,Fairbanks,US,73.6,19,40,11.5,64.8378,-147.7164
837,837,Inhambane,MZ,69.58,76,100,18.39,-23.865,35.3833
838,838,Port alfred,ZA,54.18,91,8,11.41,-33.5906,26.891
839,839,Kodiak,US,56.71,72,0,11.5,57.79,-152.4072
840,840,Craig,US,64.35,48,100,11.5,40.5153,-107.5464
841,841,Narasannapeta,IN,85.28,80,100,9.6,18.4167,84.05
842,842,Rikitea,PF,73.31,79,62,19.06,-23.1203,-134.9692
843,843,Saint-philippe,RE,71.19,66,55,7.25,-21.3585,55.7679
844,844,Kapaa,US,82.38,70,0,10.36,22.0752,-159.319
845,845,Busselton,AU,58.06,61,100,10.22,-33.65,115.3333
846,846,Bluff,NZ,55.8,71,4,6.76,-46.6,168.3333
847,847,Barrow,US,30.22,80,100,21.85,71.2906,-156.7887
848,848,Tarancon,ES,62.49,42,50,2.3,40.0085,-3.0073
849,849,Cherskiy,RU,44.8,50,20,17.96,68.75,161.3
850,850,Leningradskiy,RU,35.98,75,66,10.27,69.3833,178.4167
851,851,Izumo,JP,65.84,90,100,1.86,35.3667,132.7667
852,852,Ushuaia,AR,47.86,49,75,17.27,-54.8,-68.3
853,853,Tasiilaq,GL,39.36,62,5,4.43,65.6145,-37.6368
854,854,Punta arenas,CL,44.71,61,75,13.8,-53.15,-70.9167
855,855,Chokurdakh,RU,55.17,33,0,11.01,70.6333,147.9167
856,856,Poya,NC,81.25,59,3,2.44,-21.35,165.15
857,857,Punta arenas,CL,44.71,61,75,13.8,-53.15,-70.9167
858,858,Amahai,ID,84.2,66,18,0.65,-3.3333,128.9167
859,859,Lorengau,PG,85.41,59,28,7.07,-2.0226,147.2712
860,860,Cherskiy,RU,44.8,50,20,17.96,68.75,161.3
861,861,Yellowknife,CA,73.56,25,79,17.0,62.456,-114.3525
862,862,Jamestown,SH,64.02,71,0,3.65,-15.9387,-5.7168
863,863,Yellowknife,CA,73.56,25,79,17.0,62.456,-114.3525
864,864,Busselton,AU,58.06,61,100,10.22,-33.65,115.3333
865,865,Bethel,US,64.9,72,0,0.0,41.3712,-73.414
866,866,Port augusta,AU,58.91,49,7,15.32,-32.5,137.7667
867,867,Kargasok,RU,45.23,75,24,7.36,59.0556,80.8572
868,868,Bardiyah,LY,71.38,82,0,11.32,31.7561,25.0865
869,869,Tasiilaq,GL,39.36,62,5,4.43,65.6145,-37.6368
870,870,Bluff,NZ,55.8,71,4,6.76,-46.6,168.3333
871,871,Jamestown,SH,64.02,71,0,3.65,-15.9387,-5.7168
872,872,Castro,CL,47.68,93,100,20.71,-42.4721,-73.7732
873,873,Hilo,US,87.28,86,100,4.61,19.7297,-155.09
874,874,Namatanai,PG,84.76,66,37,3.29,-3.6667,152.4333
875,875,Muravlenko,RU,40.03,49,100,0.89,63.7898,74.523
876,876,Hobart,AU,49.86,76,75,26.46,-42.8794,147.3294
877,877,Alta floresta,BR,71.51,70,4,3.87,-9.8756,-56.0861
878,878,Bathsheba,BB,79.48,81,12,19.48,13.2167,-59.5167
879,879,Chokurdakh,RU,55.17,33,0,11.01,70.6333,147.9167
880,880,Zanjan,IR,66.33,41,82,4.5,36.6736,48.4787
881,881,Port alfred,ZA,54.18,91,8,11.41,-33.5906,26.891
882,882,Hobart,AU,49.86,76,75,26.46,-42.8794,147.3294
883,883,Praya,ID,85.86,70,20,3.44,-8.7054,116.2704
884,884,Atuona,PF,78.48,72,13,15.35,-9.8,-139.0333
885,885,Puerto ayora,EC,70.56,96,100,4.0,-0.7393,-90.3518
886,886,Rantauprapat,ID,82.02,72,100,2.3,2.1,99.8333
887,887,Ribeira grande,PT,65.16,94,81,11.72,38.5167,-28.7
888,888,Aquiraz,BR,77.09,90,100,10.11,-3.9014,-38.3911
889,889,Upernavik,GL,29.12,81,1,9.82,72.7868,-56.1549
890,890,Kingaroy,AU,60.91,51,80,12.46,-26.5333,151.8333
891,891,Mecca,SA,87.49,18,0,3.15,21.4267,39.8261
892,892,Bealanana,MG,51.85,98,14,3.85,-14.55,48.7333
893,893,Pangai,TO,78.3,76,34,12.84,-19.8,-174.35
894,894,Barrow,US,30.22,80,100,21.85,71.2906,-156.7887
895,895,Qaanaaq,GL,25.81,78,81,5.55,77.484,-69.3632
896,896,Tilichiki,RU,47.16,81,99,8.75,60.4667,166.1
897,897,General roca,AR,49.62,50,100,11.01,-39.0333,-67.5833
898,898,Narsaq,GL,52.02,61,100,2.37,60.9167,-46.05
899,899,Merke,KZ,71.24,47,4,1.79,42.8728,73.1786
900,900,Bolobo,CD,71.49,71,99,1.5,-2.1667,16.2333
901,901,Kapaa,US,82.38,70,0,10.36,22.0752,-159.319
902,902,Kapaa,US,82.38,70,0,10.36,22.0752,-159.319
903,903,Dikson,RU,30.94,91,100,12.1,73.5069,80.5464
904,904,Zeya,RU,79.11,34,49,3.27,53.75,127.2667
905,905,Avarua,CK,80.65,78,40,13.8,-21.2078,-159.775
906,906,Butaritari,KI,82.24,71,69,12.84,3.0707,172.7902
907,907,Ponta do sol,CV,73.18,79,16,15.68,17.1994,-25.0919
908,908,Quito,EC,49.15,93,94,2.8,-0.2299,-78.5249
909,909,Praia,CV,73.94,78,0,21.85,14.9215,-23.5087
910,910,Avarua,CK,80.65,78,40,13.8,-21.2078,-159.775
911,911,Clyde river,CA,30.43,89,15,4.0,70.4692,-68.5914
912,912,San antonio,CL,47.26,100,0,0.0,-33.5933,-71.6217
913,913,Taksimo,RU,66.38,55,100,2.33,56.3444,114.8794
914,914,Hithadhoo,MV,82.47,70,82,4.0,-0.6,73.0833
915,915,Naze,JP,73.63,94,100,23.38,28.3667,129.4833
916,916,Upernavik,GL,29.12,81,1,9.82,72.7868,-56.1549
917,917,Vanavara,RU,54.75,42,72,3.62,60.34,102.2797
918,918,Ushuaia,AR,47.86,49,75,17.27,-54.8,-68.3
919,919,Sampit,ID,84.96,69,54,2.44,-2.5333,112.95
920,920,Rikitea,PF,73.31,79,62,19.06,-23.1203,-134.9692
921,921,Kodiak,US,56.71,72,0,11.5,57.79,-152.4072
922,922,Port lincoln,AU,56.08,64,98,19.33,-34.7333,135.8667
923,923,Sarata,UA,58.66,80,97,9.13,46.0197,29.6657
924,924,Bluff,NZ,55.8,71,4,6.76,-46.6,168.3333
925,925,Georgetown,SH,78.01,69,34,10.38,-7.9333,-14.4167
926,926,Vavozh,RU,55.09,86,100,1.12,56.7751,51.931
927,927,Ingham,AU,79.95,69,100,3.44,-18.65,146.1667
928,928,Atuona,PF,78.48,72,13,15.35,-9.8,-139.0333
929,929,Punta arenas,CL,44.71,61,75,13.8,-53.15,-70.9167
930,930,Atuona,PF,78.48,72,13,15.35,-9.8,-139.0333
931,931,Castro,CL,47.68,93,100,20.71,-42.4721,-73.7732
932,932,Ust-nera,RU,69.6,36,36,9.1,64.5667,143.2
933,933,Santa cruz,CR,79.16,88,100,2.39,10.2605,-85.5851
934,934,Gold coast,AU,69.78,72,85,6.91,-28.0,153.4333
935,935,Kapaa,US,82.38,70,0,10.36,22.0752,-159.319
936,936,Munger,IN,90.73,56,66,9.95,25.3833,86.4667
937,937,Tumaco,CO,76.08,84,100,6.96,1.7986,-78.8156
938,938,Dikson,RU,30.94,91,100,12.1,73.5069,80.5464
939,939,Alice springs,AU,56.75,67,40,12.66,-23.7,133.8833
940,940,Iquique,CL,60.84,82,100,4.63,-20.2208,-70.1431
941,941,Fortuna,US,63.52,74,20,8.05,40.5982,-124.1573
942,942,Vaini,TO,75.96,79,45,7.43,-21.2,-175.2
943,943,Narsaq,GL,52.02,61,100,2.37,60.9167,-46.05
944,944,Avarua,CK,80.65,78,40,13.8,-21.2078,-159.775
945,945,Balgazyn,RU,46.89,91,100,13.71,51.0,95.2
946,946,Chara,RU,69.55,37,13,3.87,56.9064,118.2631
947,947,Saldanha,ZA,63.59,36,0,7.38,-33.0117,17.9442
948,948,Yeppoon,AU,74.98,73,89,9.08,-23.1333,150.7333
949,949,Ushuaia,AR,47.86,49,75,17.27,-54.8,-68.3
950,950,Vaini,TO,75.96,79,45,7.43,-21.2,-175.2
951,951,Kapaa,US,82.38,70,0,10.36,22.0752,-159.319
952,952,Bredasdorp,ZA,54.66,61,3,3.98,-34.5322,20.0403
953,953,Luanda,AO,69.51,84,79,3.76,-8.8368,13.2343
954,954,Yellowknife,CA,73.56,25,79,17.0,62.456,-114.3525
955,955,Tessalit,ML,89.08,9,0,11.18,20.1986,1.0114
956,956,Princeton,CA,60.21,79,100,2.06,49.458,-120.5108
957,957,Atuona,PF,78.48,72,13,15.35,-9.8,-139.0333
958,958,Barrow,US,30.22,80,100,21.85,71.2906,-156.7887
959,959,Hobart,AU,49.86,76,75,26.46,-42.8794,147.3294
960,960,Portland,AU,51.78,69,79,16.15,-38.3333,141.6
961,961,Touros,BR,75.38,84,28,11.81,-5.1989,-35.4608
962,962,Avarua,CK,80.65,78,40,13.8,-21.2078,-159.775
963,963,Bluff,NZ,55.8,71,4,6.76,-46.6,168.3333
964,964,Hilo,US,87.28,86,100,4.61,19.7297,-155.09
965,965,Jacareacanga,BR,71.35,99,100,2.17,-6.2222,-57.7528
966,966,Victoria,SC,78.06,89,75,6.91,-4.6167,55.45
967,967,Centenario do sul,BR,63.16,85,85,8.66,-22.8211,-51.5953
968,968,Port alfred,ZA,54.18,91,8,11.41,-33.5906,26.891
969,969,Buraydah,SA,77.45,9,17,3.47,26.326,43.975
970,970,Rikitea,PF,73.31,79,62,19.06,-23.1203,-134.9692
971,971,Ossora,RU,49.1,80,99,11.61,59.2353,163.0719
972,972,Provideniya,RU,42.91,75,0,11.18,64.3833,-173.3
973,973,Qaanaaq,GL,25.81,78,81,5.55,77.484,-69.3632
974,974,Ketchikan,US,63.07,63,100,11.5,55.3422,-131.6461
975,975,East london,ZA,61.0,79,9,12.19,-33.0153,27.9116
976,976,Isla mujeres,MX,82.45,83,69,6.62,21.2311,-86.731
977,977,Punta arenas,CL,44.71,61,75,13.8,-53.15,-70.9167
978,978,Busselton,AU,58.06,61,100,10.22,-33.65,115.3333
979,979,Kavaratti,IN,82.18,77,100,10.71,10.5669,72.642
980,980,Rikitea,PF,73.31,79,62,19.06,-23.1203,-134.9692
981,981,Ponta do sol,CV,73.18,79,16,15.68,17.1994,-25.0919
982,982,Bluff,NZ,55.8,71,4,6.76,-46.6,168.3333
983,983,Barrow,US,30.22,80,100,21.85,71.2906,-156.7887
984,984,Bluff,NZ,55.8,71,4,6.76,-46.6,168.3333
985,985,Lebu,CL,50.92,88,100,4.12,-37.6167,-73.65
986,986,Provideniya,RU,42.91,75,0,11.18,64.3833,-173.3
987,987,Ponta do sol,PT,64.71,77,51,0.47,32.6667,-17.1
988,988,Victoria,SC,78.06,89,75,6.91,-4.6167,55.45
989,989,Punta arenas,CL,44.71,61,75,13.8,-53.15,-70.9167
990,990,Nuuk,GL,45.21,65,0,10.36,64.1835,-51.7216
991,991,Ribeira grande,PT,65.16,94,81,11.72,38.5167,-28.7
992,992,Vila franca do campo,PT,70.2,96,96,5.19,37.7167,-25.4333
993,993,Barrow,US,30.22,80,100,21.85,71.2906,-156.7887
994,994,Cayenne,GF,81.09,1,100,2.3,4.9333,-52.3333
995,995,Vaini,TO,75.96,79,45,7.43,-21.2,-175.2
996,996,Davila,PH,87.78,73,73,14.63,18.4726,120.5763
997,997,Port alfred,ZA,54.18,91,8,11.41,-33.5906,26.891
998,998,Punta arenas,CL,44.71,61,75,13.8,-53.15,-70.9167
999,999,Axim,GH,76.82,87,93,7.25,4.8699,-2.2405
1000,1000,Qasigiannguit,GL,41.25,68,0,5.59,68.8193,-51.1922
1001,1001,Alice springs,AU,56.75,67,40,12.66,-23.7,133.8833
1002,1002,Mahebourg,MU,71.89,83,40,2.3,-20.4081,57.7
1003,1003,Constitucion,MX,75.13,36,100,10.0,23.9912,-104.6749
1004,1004,Whakatane,NZ,55.78,90,100,7.29,-37.9585,176.9854
1005,1005,Mgandu,TZ,55.58,83,99,7.83,-5.95,34.1333
1006,1006,Bubaque,GW,79.81,80,81,8.32,11.2833,-15.8333
1007,1007,Oktyabrskiy,RU,58.08,83,100,2.57,54.4815,53.471
1008,1008,Skibbereen,IE,55.11,95,100,6.64,51.55,-9.2667
1009,1009,Thompson,CA,56.97,61,89,0.98,55.7435,-97.8558
1010,1010,Coquimbo,CL,53.33,82,0,4.61,-29.9533,-71.3436
1011,1011,Jamestown,SH,64.02,71,0,3.65,-15.9387,-5.7168
1012,1012,Atuona,PF,78.48,72,13,15.35,-9.8,-139.0333
1013,1013,Acapulco,MX,82.22,74,75,6.91,16.8634,-99.8901
1014,1014,Tuktoyaktuk,CA,32.41,75,36,9.24,69.4541,-133.0374
1015,1015,Nanortalik,GL,43.34,78,100,4.16,60.1432,-45.2371
1016,1016,Rikitea,PF,73.31,79,62,19.06,-23.1203,-134.9692
1017,1017,Butaritari,KI,82.24,71,69,12.84,3.0707,172.7902
1018,1018,Salcia,RO,64.4,95,94,8.9,44.1408,22.9278
1019,1019,Talnakh,RU,31.21,67,27,1.86,69.4865,88.3972
1020,1020,San-pedro,CI,76.75,89,100,5.66,4.7485,-6.6363
1021,1021,Tuktoyaktuk,CA,32.41,75,36,9.24,69.4541,-133.0374
1022,1022,Chuy,UY,55.42,94,100,3.18,-33.6971,-53.4616
1023,1023,Butaritari,KI,82.24,71,69,12.84,3.0707,172.7902
1024,1024,Hermanus,ZA,62.02,49,11,7.2,-34.4187,19.2345
1025,1025,Ushuaia,AR,47.86,49,75,17.27,-54.8,-68.3
1026,1026,Nemuro,JP,44.73,84,42,9.4,43.3236,145.575
1027,1027,Chokurdakh,RU,55.17,33,0,11.01,70.6333,147.9167
1028,1028,Cabo san lucas,MX,87.1,42,0,10.36,22.8909,-109.9124
1029,1029,New norfolk,AU,49.5,84,98,8.01,-42.7826,147.0587
1030,1030,Atuona,PF,78.48,72,13,15.35,-9.8,-139.0333
1031,1031,Punta arenas,CL,44.71,61,75,13.8,-53.15,-70.9167
1032,1032,Saint george,BM,76.78,94,100,24.16,32.3817,-64.6781
1033,1033,Sisimiut,GL,41.83,51,0,16.98,66.9395,-53.6735
1034,1034,Ushuaia,AR,47.86,49,75,17.27,-54.8,-68.3
1035,1035,Jamestown,SH,64.02,71,0,3.65,-15.9387,-5.7168
1036,1036,Pacific grove,US,71.28,88,40,5.99,36.6177,-121.9166
1037,1037,Rikitea,PF,73.31,79,62,19.06,-23.1203,-134.9692
1038,1038,Barrow,US,30.22,80,100,21.85,71.2906,-156.7887
1039,1039,Singaraja,ID,85.19,66,62,2.44,-8.112,115.0882
1040,1040,Nanortalik,GL,43.34,78,100,4.16,60.1432,-45.2371
1041,1041,Kimbe,PG,87.93,61,14,4.25,-5.5502,150.1429
1042,1042,Teya,RU,51.01,57,100,3.0,60.3778,92.6267
1043,1043,Victoria,SC,78.06,89,75,6.91,-4.6167,55.45
1044,1044,Hasaki,JP,63.0,87,100,21.97,35.7333,140.8333
1045,1045,Kahului,US,84.22,58,40,21.85,20.8947,-156.47
1046,1046,Sovetskiy,RU,47.39,50,2,4.14,61.3614,63.5842
1047,1047,Mana,GF,76.59,89,100,14.76,5.6592,-53.7767
1048,1048,Ushuaia,AR,47.86,49,75,17.27,-54.8,-68.3
1049,1049,Saint-jean-de-maurienne,FR,38.14,90,50,2.06,45.1667,6.5833
1050,1050,Pevek,RU,33.78,81,36,10.09,69.7008,170.3133
1051,1051,Jamestown,SH,64.02,71,0,3.65,-15.9387,-5.7168
1052,1052,Zivinice,BA,64.62,100,0,1.14,44.4494,18.6497
1053,1053,Hobart,AU,49.86,76,75,26.46,-42.8794,147.3294
1054,1054,Herat,AF,68.32,19,0,8.88,34.5,62.0
1055,1055,Klaksvik,FO,50.92,89,87,8.14,62.2266,-6.589
1056,1056,Kankon,IN,82.49,73,100,4.09,15.0167,74.0167
1057,1057,Kovdor,RU,44.83,66,50,6.49,67.5662,30.4758
1058,1058,Amapa,BR,71.58,98,100,2.28,1.0,-52.0
1059,1059,Hilton head island,US,79.99,74,1,1.99,32.2163,-80.7526
1060,1060,Butaritari,KI,82.24,71,69,12.84,3.0707,172.7902
1061,1061,Limbang,MY,84.31,64,67,0.58,4.75,115.0
1062,1062,Saint-philippe,RE,71.19,66,55,7.25,-21.3585,55.7679
1063,1063,Karratha,AU,73.06,40,14,16.8,-20.7377,116.8463
1064,1064,Katsuura,JP,64.42,91,100,24.45,35.1333,140.3
1065,1065,Cabo san lucas,MX,87.1,42,0,10.36,22.8909,-109.9124
1066,1066,Butaritari,KI,82.24,71,69,12.84,3.0707,172.7902
1067,1067,Mayo,CA,59.0,77,100,2.3,63.5927,-135.8998
1068,1068,Cape town,ZA,64.11,51,4,3.67,-33.9258,18.4232
1069,1069,Vaini,TO,75.96,79,45,7.43,-21.2,-175.2
1070,1070,Esperance,AU,53.44,67,100,6.8,-33.8667,121.9
1071,1071,Darnah,LY,73.87,72,0,12.53,32.767,22.6367
1072,1072,Tezu,IN,74.03,98,100,3.6,27.9167,96.1667
1073,1073,Bambous virieux,MU,69.22,79,54,9.48,-20.3428,57.7575
1074,1074,Port elizabeth,ZA,55.38,82,7,6.13,-33.918,25.5701
1075,1075,Ahipara,NZ,63.07,69,7,7.34,-35.1667,173.1667
1076,1076,Cherskiy,RU,44.8,50,20,17.96,68.75,161.3
1077,1077,Longyearbyen,SJ,44.44,87,40,3.44,78.2186,15.6401
1078,1078,Bambous virieux,MU,69.22,79,54,9.48,-20.3428,57.7575
1079,1079,Sao filipe,CV,75.6,74,2,15.12,14.8961,-24.4956
1080,1080,Buraydah,SA,77.45,9,17,3.47,26.326,43.975
1081,1081,Vostok,RU,63.5,35,78,7.4,46.4856,135.8833
1082,1082,Vostok,RU,63.5,35,78,7.4,46.4856,135.8833
1083,1083,Vaini,TO,75.96,79,45,7.43,-21.2,-175.2
1084,1084,Opunake,NZ,65.12,76,26,4.07,-39.4556,173.8583
1085,1085,Pasni,PK,81.18,83,0,6.91,25.2631,63.471
1086,1086,Tuktoyaktuk,CA,32.41,75,36,9.24,69.4541,-133.0374
1087,1087,Barrow,US,30.22,80,100,21.85,71.2906,-156.7887
1088,1088,Georgetown,SH,78.01,69,34,10.38,-7.9333,-14.4167
1089,1089,Leningradskiy,RU,35.98,75,66,10.27,69.3833,178.4167
1090,1090,Jamame,SO,75.52,82,64,8.75,0.0722,42.7506
1091,1091,Tymovskoye,RU,68.13,41,61,2.51,50.8456,142.655
1092,1092,Puerto ayora,EC,70.56,96,100,4.0,-0.7393,-90.3518
1093,1093,Hasaki,JP,63.0,87,100,21.97,35.7333,140.8333
1094,1094,Port hardy,CA,53.89,81,97,3.02,50.6996,-127.4199
1095,1095,Cape town,ZA,64.11,51,4,3.67,-33.9258,18.4232
1096,1096,Avarua,CK,80.65,78,40,13.8,-21.2078,-159.775
1097,1097,Clermont,CA,50.49,99,98,2.59,47.6945,-70.226
1098,1098,Hilo,US,87.28,86,100,4.61,19.7297,-155.09
1099,1099,Georgetown,SH,78.01,69,34,10.38,-7.9333,-14.4167
1100,1100,Norman wells,CA,49.73,52,100,6.51,65.282,-126.8329
1101,1101,Shetpe,KZ,78.58,22,41,5.64,44.1667,52.1167
1102,1102,Tuktoyaktuk,CA,32.41,75,36,9.24,69.4541,-133.0374
1103,1103,Seoul,KR,63.79,68,100,9.1,37.5683,126.9778
1104,1104,Saint-augustin,CA,46.85,83,100,8.23,51.226,-58.6502
1105,1105,San jose,BO,69.6,65,99,11.07,-17.9389,-63.3516
1106,1106,Jamestown,SH,64.02,71,0,3.65,-15.9387,-5.7168
1107,1107,Talnakh,RU,31.21,67,27,1.86,69.4865,88.3972
1108,1108,Isangel,VU,79.99,62,10,6.69,-19.55,169.2667
1109,1109,Albany,AU,54.82,77,100,5.99,-35.0169,117.8917
1110,1110,Jamestown,SH,64.02,71,0,3.65,-15.9387,-5.7168
1111,1111,Dingle,IE,55.42,94,100,3.74,52.1408,-10.2689
1112,1112,Albany,AU,54.82,77,100,5.99,-35.0169,117.8917
1113,1113,Cherskiy,RU,44.8,50,20,17.96,68.75,161.3
1114,1114,Langcangan,PH,85.26,64,34,3.06,8.4794,123.7558
1115,1115,Clyde river,CA,30.43,89,15,4.0,70.4692,-68.5914
1116,1116,Esperance,AU,53.44,67,100,6.8,-33.8667,121.9
1117,1117,Busselton,AU,58.06,61,100,10.22,-33.65,115.3333
1118,1118,Rikitea,PF,73.31,79,62,19.06,-23.1203,-134.9692
1119,1119,Vaini,TO,75.96,79,45,7.43,-21.2,-175.2
1120,1120,Skibbereen,IE,55.11,95,100,6.64,51.55,-9.2667
1121,1121,Elizabeth city,US,69.82,86,0,11.5,36.2946,-76.2511
1122,1122,Georgetown,SH,78.01,69,34,10.38,-7.9333,-14.4167
1123,1123,Yellowknife,CA,73.56,25,79,17.0,62.456,-114.3525
1124,1124,Sabang,ID,82.29,76,84,9.46,5.8933,95.3214
1125,1125,Qaanaaq,GL,25.81,78,81,5.55,77.484,-69.3632
1126,1126,Pokhara,NP,80.38,56,44,3.67,28.2333,83.9833
1127,1127,Nome,US,70.16,34,0,14.97,64.5011,-165.4064
1128,1128,Sorong,ID,82.89,70,12,1.28,-0.8833,131.25
1129,1129,Yellowknife,CA,73.56,25,79,17.0,62.456,-114.3525
1130,1130,Naze,JP,73.63,94,100,23.38,28.3667,129.4833
1131,1131,Ketchikan,US,63.07,63,100,11.5,55.3422,-131.6461
1132,1132,Jamestown,SH,64.02,71,0,3.65,-15.9387,-5.7168
1133,1133,Cape town,ZA,64.11,51,4,3.67,-33.9258,18.4232
1134,1134,Butaritari,KI,82.24,71,69,12.84,3.0707,172.7902
1135,1135,San cristobal,EC,72.84,86,93,13.56,-0.9045,-89.6174
1136,1136,Busselton,AU,58.06,61,100,10.22,-33.65,115.3333
1137,1137,Rafaela,AR,50.99,69,14,4.85,-31.2503,-61.4867
1138,1138,Alindao,CF,68.41,99,100,3.33,5.0267,21.2088
1139,1139,Saskylakh,RU,37.47,57,100,5.3,71.9167,114.0833
1140,1140,Saint george,BM,76.78,94,100,24.16,32.3817,-64.6781
1141,1141,Kulu,TR,60.66,80,86,7.16,39.0951,33.0799
1142,1142,Sao luiz gonzaga,BR,62.67,96,100,6.08,-28.4083,-54.9608
1143,1143,Hobart,AU,49.86,76,75,26.46,-42.8794,147.3294
1144,1144,Cape town,ZA,64.11,51,4,3.67,-33.9258,18.4232
1145,1145,Kavieng,PG,84.36,66,14,3.67,-2.5744,150.7967
1146,1146,Vaini,TO,75.96,79,45,7.43,-21.2,-175.2
1147,1147,Avarua,CK,80.65,78,40,13.8,-21.2078,-159.775
1148,1148,Upernavik,GL,29.12,81,1,9.82,72.7868,-56.1549
1149,1149,Tarakan,ID,81.9,83,40,6.91,3.3,117.6333
1150,1150,Chernyshevskiy,RU,63.97,54,100,2.82,63.0128,112.4714
1151,1151,Forio,IT,77.52,65,55,1.99,40.7342,13.8646
1152,1152,Bengkulu,ID,79.65,75,100,2.71,-3.8004,102.2655
1153,1153,Lyngseidet,NO,46.4,82,89,8.21,69.5763,20.2189
1154,1154,Rikitea,PF,73.31,79,62,19.06,-23.1203,-134.9692
1155,1155,Albany,AU,54.82,77,100,5.99,-35.0169,117.8917
1156,1156,Punta arenas,CL,44.71,61,75,13.8,-53.15,-70.9167
1157,1157,New norfolk,AU,49.5,84,98,8.01,-42.7826,147.0587
1158,1158,Luderitz,,69.4,27,0,18.63,-26.6481,15.1594
1159,1159,Cape town,ZA,64.11,51,4,3.67,-33.9258,18.4232
1160,1160,Sharjah,AE,85.98,50,0,5.75,25.3573,55.4033
1161,1161,Jasper,CA,52.95,84,100,5.75,52.8833,-118.0857
1162,1162,Busselton,AU,58.06,61,100,10.22,-33.65,115.3333
1163,1163,Valparaiso,CL,55.47,83,0,2.3,-33.0393,-71.6273
1164,1164,Shahrud,IR,73.99,22,83,0.72,36.4182,54.9763
1165,1165,Kardla,EE,49.05,74,26,5.99,58.9978,22.7492
1166,1166,Caravelas,BR,70.5,70,99,8.81,-17.7125,-39.2481
1167,1167,Ostrovnoy,RU,52.66,82,96,7.7,68.0531,39.5131
1168,1168,Saint-philippe,RE,71.19,66,55,7.25,-21.3585,55.7679
1169,1169,Tayga,RU,40.12,82,99,7.74,56.06,85.6197
1170,1170,Torbay,CA,48.27,70,75,11.5,47.6666,-52.7314
1171,1171,Mar del plata,AR,48.09,90,100,5.75,-38.0023,-57.5575
1172,1172,Biak,ID,82.9,68,26,2.55,-0.9131,122.8766
1173,1173,Ribeira grande,PT,65.16,94,81,11.72,38.5167,-28.7
1174,1174,Kudahuvadhoo,MV,82.76,72,100,10.38,2.6708,72.8944
1175,1175,Salaya,IN,81.95,77,80,11.99,22.3167,69.6
1176,1176,Kloulklubed,PW,75.7,69,100,1.7,7.0419,134.2556
1177,1177,Albany,AU,54.82,77,100,5.99,-35.0169,117.8917
1178,1178,Saint-philippe,RE,71.19,66,55,7.25,-21.3585,55.7679
1179,1179,Iguape,BR,64.36,91,14,5.03,-24.7081,-47.5553
1180,1180,Tuatapere,NZ,56.79,70,2,5.53,-46.1333,167.6833
1181,1181,Barmer,IN,80.29,61,82,14.74,25.75,71.3833
1182,1182,Ushuaia,AR,47.86,49,75,17.27,-54.8,-68.3
1183,1183,Georgetown,SH,78.01,69,34,10.38,-7.9333,-14.4167
1184,1184,Butaritari,KI,82.24,71,69,12.84,3.0707,172.7902
1185,1185,Kapaa,US,82.38,70,0,10.36,22.0752,-159.319
1186,1186,Yellowknife,CA,73.56,25,79,17.0,62.456,-114.3525
1187,1187,Fort dodge,US,64.53,94,100,0.0,42.4975,-94.168
1188,1188,Portland,AU,51.78,69,79,16.15,-38.3333,141.6
1189,1189,Lavrentiya,RU,43.07,60,53,5.97,65.5833,-171.0
1190,1190,Hilo,US,87.28,86,100,4.61,19.7297,-155.09
1191,1191,Albany,AU,54.82,77,100,5.99,-35.0169,117.8917
1192,1192,Port elizabeth,ZA,55.38,82,7,6.13,-33.918,25.5701
1193,1193,Busselton,AU,58.06,61,100,10.22,-33.65,115.3333
1194,1194,Vaini,TO,75.96,79,45,7.43,-21.2,-175.2
1195,1195,Dikson,RU,30.94,91,100,12.1,73.5069,80.5464
1196,1196,Beaupre,CA,53.67,94,98,3.0,47.0443,-70.8953
1197,1197,Vanimo,PG,85.57,65,100,4.88,-2.6741,141.3028
1198,1198,Yellowknife,CA,73.56,25,79,17.0,62.456,-114.3525
1199,1199,Thompson,CA,56.97,61,89,0.98,55.7435,-97.8558
1200,1200,Rikitea,PF,73.31,79,62,19.06,-23.1203,-134.9692
1201,1201,Cape town,ZA,64.11,51,4,3.67,-33.9258,18.4232
1202,1202,Port-gentil,GA,75.63,89,100,7.65,-0.7193,8.7815
1203,1203,Castanos,MX,83.95,37,85,14.12,26.7833,-101.4167
1204,1204,Erenhot,CN,59.09,43,5,2.57,43.6475,111.9767
1205,1205,Atuona,PF,78.48,72,13,15.35,-9.8,-139.0333
1206,1206,Praia da vitoria,PT,64.76,94,20,9.22,38.7333,-27.0667
1207,1207,Castro,CL,47.68,93,100,20.71,-42.4721,-73.7732
1208,1208,Mar del plata,AR,48.09,90,100,5.75,-38.0023,-57.5575
1209,1209,Voh,NC,84.6,52,3,2.51,-20.9667,164.7
1210,1210,Kurumkan,RU,62.22,68,53,3.2,54.3,110.3
1211,1211,East london,ZA,61.0,79,9,12.19,-33.0153,27.9116
1212,1212,La romana,DO,79.16,89,20,0.0,18.4273,-68.9728
1213,1213,Hofn,IS,52.77,72,100,7.67,64.2539,-15.2082
1214,1214,Robertsport,LR,78.46,84,100,6.22,6.7533,-11.3686
1215,1215,Rawson,AR,50.74,57,100,14.12,-43.3002,-65.1023
1216,1216,Harbour breton,CA,46.89,76,98,3.4,47.4833,-55.7983
1217,1217,Inverell,AU,56.1,63,37,8.99,-29.7833,151.1167
1218,1218,Ilave,PE,44.04,81,100,1.63,-16.0833,-69.6667
1219,1219,Iberia,PE,74.82,78,100,2.28,-11.35,-69.5833
1220,1220,Port elizabeth,ZA,55.38,82,7,6.13,-33.918,25.5701
1221,1221,Kalmunai,LK,79.65,79,100,8.05,7.4167,81.8167
1222,1222,Ponta do sol,CV,73.18,79,16,15.68,17.1994,-25.0919
1223,1223,Bluff,NZ,55.8,71,4,6.76,-46.6,168.3333
1224,1224,Pondicherry,IN,82.51,68,100,4.83,11.93,79.83
1225,1225,Castro,CL,47.68,93,100,20.71,-42.4721,-73.7732
1226,1226,Port hardy,CA,53.89,81,97,3.02,50.6996,-127.4199
1227,1227,Pisco,PE,65.01,77,14,8.05,-13.7,-76.2167
1228,1228,Vaini,TO,75.96,79,45,7.43,-21.2,-175.2
1229,1229,Khatanga,RU,32.63,77,100,7.38,71.9667,102.5
1230,1230,Canutama,BR,73.09,95,96,2.19,-6.5339,-64.3831
1231,1231,Touros,BR,75.38,84,28,11.81,-5.1989,-35.4608
1232,1232,Rikitea,PF,73.31,79,62,19.06,-23.1203,-134.9692
1233,1233,Vardo,NO,44.58,81,100,20.71,70.3705,31.1107
1234,1234,Ancud,CL,49.06,93,100,28.03,-41.8697,-73.8203
1235,1235,Castro,CL,47.68,93,100,20.71,-42.4721,-73.7732
1236,1236,Kaitangata,NZ,56.82,64,0,5.1,-46.2817,169.8464
1237,1237,Winnemucca,US,66.25,63,100,5.75,40.973,-117.7357
1238,1238,Mehamn,NO,44.51,79,67,18.16,71.0357,27.8492
1239,1239,Castro,CL,47.68,93,100,20.71,-42.4721,-73.7732
1240,1240,Puerto ayora,EC,70.56,96,100,4.0,-0.7393,-90.3518
1241,1241,Rocha,UY,49.64,96,96,3.74,-34.4833,-54.3333
1242,1242,Ushuaia,AR,47.86,49,75,17.27,-54.8,-68.3
1243,1243,Tuktoyaktuk,CA,32.41,75,36,9.24,69.4541,-133.0374
1244,1244,Borgo san dalmazzo,IT,63.14,100,21,4.88,44.333,7.4858
1245,1245,Hilo,US,87.28,86,100,4.61,19.7297,-155.09
1246,1246,Grindavik,IS,43.9,65,75,11.5,63.8424,-22.4338
1247,1247,Busselton,AU,58.06,61,100,10.22,-33.65,115.3333
1248,1248,Laguna,BR,61.99,94,100,8.12,-28.4825,-48.7808
1249,1249,Albany,AU,54.82,77,100,5.99,-35.0169,117.8917
1250,1250,Talnakh,RU,31.21,67,27,1.86,69.4865,88.3972
1251,1251,Beloha,MG,64.63,94,8,9.19,-25.1667,45.05
1252,1252,Hobart,AU,49.86,76,75,26.46,-42.8794,147.3294
1253,1253,Hami,CN,79.5,18,0,10.83,42.8,93.45
1254,1254,Jamestown,SH,64.02,71,0,3.65,-15.9387,-5.7168
1255,1255,Saskylakh,RU,37.47,57,100,5.3,71.9167,114.0833
1256,1256,Pisco,PE,65.01,77,14,8.05,-13.7,-76.2167
1257,1257,Jamestown,SH,64.02,71,0,3.65,-15.9387,-5.7168
1258,1258,Barrow,US,30.22,80,100,21.85,71.2906,-156.7887
1259,1259,Basco,PH,84.85,79,99,20.09,20.4487,121.9702
1260,1260,Qaanaaq,GL,25.81,78,81,5.55,77.484,-69.3632
1261,1261,Avarua,CK,80.65,78,40,13.8,-21.2078,-159.775
1262,1262,Avarua,CK,80.65,78,40,13.8,-21.2078,-159.775
1263,1263,Port alfred,ZA,54.18,91,8,11.41,-33.5906,26.891
1264,1264,Hobart,AU,49.86,76,75,26.46,-42.8794,147.3294
1265,1265,Hirara,JP,86.27,84,75,18.41,24.8,125.2833
1266,1266,Carnarvon,AU,70.34,51,0,6.35,-24.8667,113.6333
1267,1267,Hermanus,ZA,62.02,49,11,7.2,-34.4187,19.2345
1268,1268,Ibra,OM,80.98,52,0,1.61,22.6906,58.5334
1269,1269,Kapaa,US,82.38,70,0,10.36,22.0752,-159.319
1270,1270,Swan river,CA,55.29,44,8,10.36,52.1058,-101.2676
1271,1271,Katsuura,JP,64.42,91,100,24.45,35.1333,140.3
1272,1272,Mocuba,MZ,61.99,98,68,4.16,-16.8392,36.9856
1273,1273,Port alfred,ZA,54.18,91,8,11.41,-33.5906,26.891
1274,1274,Takoradi,GH,76.57,89,98,7.78,4.8845,-1.7554
1275,1275,Saskylakh,RU,37.47,57,100,5.3,71.9167,114.0833
1276,1276,Yellowknife,CA,73.56,25,79,17.0,62.456,-114.3525
1277,1277,Cidreira,BR,62.4,97,100,8.19,-30.1811,-50.2056
1278,1278,Provideniya,RU,42.91,75,0,11.18,64.3833,-173.3
1279,1279,Lodja,CD,67.17,70,88,1.25,-3.4833,23.4333
1280,1280,East london,ZA,61.0,79,9,12.19,-33.0153,27.9116
1281,1281,Santa rosa,AR,47.98,66,0,6.85,-36.6167,-64.2833
1282,1282,Puerto ayora,EC,70.56,96,100,4.0,-0.7393,-90.3518
1283,1283,Albany,AU,54.82,77,100,5.99,-35.0169,117.8917
1284,1284,Sao filipe,CV,75.6,74,2,15.12,14.8961,-24.4956
1285,1285,Busselton,AU,58.06,61,100,10.22,-33.65,115.3333
1286,1286,Mpika,ZM,50.79,83,8,7.27,-11.8343,31.4529
1287,1287,Khorramshahr,IR,84.16,42,0,0.0,30.4397,48.1664
1288,1288,Carnarvon,AU,70.34,51,0,6.35,-24.8667,113.6333
1289,1289,Henties bay,,72.73,32,100,16.33,-22.116,14.2845
1290,1290,Lovozero,RU,46.56,93,100,14.0,68.005,35.0117
1291,1291,East london,ZA,61.0,79,9,12.19,-33.0153,27.9116
1292,1292,Rikitea,PF,73.31,79,62,19.06,-23.1203,-134.9692
1293,1293,Thompson,CA,56.97,61,89,0.98,55.7435,-97.8558
1294,1294,Ancud,CL,49.06,93,100,28.03,-41.8697,-73.8203
1295,1295,Srednekolymsk,RU,53.15,37,6,14.76,67.45,153.6833
1296,1296,Gloria do goita,BR,73.54,96,7,5.12,-8.0017,-35.2928
1297,1297,Marienburg,SR,75.99,94,100,7.87,5.8469,-55.0216
1298,1298,Ust-nera,RU,69.6,36,36,9.1,64.5667,143.2
1299,1299,Alice springs,AU,56.75,67,40,12.66,-23.7,133.8833
1300,1300,Tongzi,CN,71.71,79,100,0.89,28.7829,105.0877
1301,1301,Slave lake,CA,63.59,48,100,11.14,55.2834,-114.769
1302,1302,Upernavik,GL,29.12,81,1,9.82,72.7868,-56.1549
1303,1303,Sitka,US,60.69,67,75,8.05,57.0531,-135.33
1304,1304,Olinda,BR,74.93,88,40,4.61,-8.0089,-34.8553
1305,1305,Hasaki,JP,63.0,87,100,21.97,35.7333,140.8333
1306,1306,Sao filipe,CV,75.6,74,2,15.12,14.8961,-24.4956
1307,1307,Kapaa,US,82.38,70,0,10.36,22.0752,-159.319
1308,1308,Portland,AU,51.78,69,79,16.15,-38.3333,141.6
1309,1309,Adrar,DZ,90.59,10,34,14.23,25.75,-1.0
1310,1310,Carutapera,BR,74.98,94,100,5.35,-1.195,-46.02
1311,1311,Pahalgam,IN,61.48,42,0,1.3,34.0333,75.3333
1312,1312,Hermanus,ZA,62.02,49,11,7.2,-34.4187,19.2345
1313,1313,Saldanha,ZA,63.59,36,0,7.38,-33.0117,17.9442
1314,1314,Punta arenas,CL,44.71,61,75,13.8,-53.15,-70.9167
1315,1315,Touros,BR,75.38,84,28,11.81,-5.1989,-35.4608
1316,1316,Boguchany,RU,49.17,71,100,6.55,58.3814,97.4531
1317,1317,Komsomolskiy,RU,67.1,82,74,6.2,43.9783,46.6985
1318,1318,Hobart,AU,49.86,76,75,26.46,-42.8794,147.3294
1319,1319,Hithadhoo,MV,82.47,70,82,4.0,-0.6,73.0833
1320,1320,Rikitea,PF,73.31,79,62,19.06,-23.1203,-134.9692
1321,1321,Albany,AU,54.82,77,100,5.99,-35.0169,117.8917
1322,1322,Taksimo,RU,66.38,55,100,2.33,56.3444,114.8794
1323,1323,Aripuana,BR,77.41,68,100,2.28,-9.1667,-60.6333
1324,1324,Ruthin,GB,52.25,98,100,2.53,53.1137,-3.3178
1325,1325,Port pirie,AU,56.91,59,34,14.29,-33.1833,138.0167
1326,1326,Albany,AU,54.82,77,100,5.99,-35.0169,117.8917
1327,1327,Atuona,PF,78.48,72,13,15.35,-9.8,-139.0333
1328,1328,Lashio,MM,75.13,84,97,1.25,22.9333,97.75
1329,1329,Tecoanapa,MX,81.03,77,58,4.29,16.5167,-98.75
1330,1330,Impfondo,CG,70.65,95,98,1.83,1.6381,18.0667
1331,1331,Porto nacional,BR,80.6,48,0,1.12,-10.7081,-48.4172
1332,1332,Rikitea,PF,73.31,79,62,19.06,-23.1203,-134.9692
1333,1333,Batemans bay,AU,58.1,56,3,15.82,-35.7167,150.1833
1334,1334,Cayenne,GF,81.09,1,100,2.3,4.9333,-52.3333
1335,1335,Banjar,ID,85.86,65,60,0.45,-8.19,114.9675
1336,1336,San bartolome de tirajana,ES,59.47,78,40,20.71,27.9248,-15.5733
1337,1337,Punta arenas,CL,44.71,61,75,13.8,-53.15,-70.9167
1338,1338,Puerto ayora,EC,70.56,96,100,4.0,-0.7393,-90.3518
1339,1339,Hualmay,PE,64.42,86,100,14.27,-11.0964,-77.6139
1340,1340,Kodiak,US,56.71,72,0,11.5,57.79,-152.4072
1341,1341,Atuona,PF,78.48,72,13,15.35,-9.8,-139.0333
1342,1342,Luancheng,CN,84.36,19,46,12.19,37.8792,114.6517
1343,1343,Talara,PE,65.12,90,98,14.88,-4.5772,-81.2719
1344,1344,Busselton,AU,58.06,61,100,10.22,-33.65,115.3333
1345,1345,Upernavik,GL,29.12,81,1,9.82,72.7868,-56.1549
1346,1346,Iqaluit,CA,42.53,75,0,12.66,63.7506,-68.5145
1347,1347,Kodiak,US,56.71,72,0,11.5,57.79,-152.4072
1348,1348,Jamestown,SH,64.02,71,0,3.65,-15.9387,-5.7168
1349,1349,Hilo,US,87.28,86,100,4.61,19.7297,-155.09
1350,1350,Vaini,TO,75.96,79,45,7.43,-21.2,-175.2
1351,1351,Chokurdakh,RU,55.17,33,0,11.01,70.6333,147.9167
1352,1352,Shizunai,JP,53.02,75,100,9.73,42.3339,142.3669
1353,1353,Port macquarie,AU,68.9,42,0,12.53,-31.4333,152.9167
1354,1354,Ilulissat,GL,41.02,36,0,16.11,69.2167,-51.1
1355,1355,Port alfred,ZA,54.18,91,8,11.41,-33.5906,26.891
1356,1356,Vazhiny,RU,49.82,94,100,5.08,60.9644,34.0222
1357,1357,Nikolskoye,RU,51.8,94,100,4.43,59.7035,30.7861
1358,1358,Araouane,ML,94.55,11,37,6.78,18.9048,-3.5265
1359,1359,Saint-philippe,RE,71.19,66,55,7.25,-21.3585,55.7679
1360,1360,Harper,LR,77.88,86,100,6.06,4.375,-7.7169
1361,1361,Huntsville,US,75.85,70,0,5.75,34.7304,-86.5861
1362,1362,Puerto ayora,EC,70.56,96,100,4.0,-0.7393,-90.3518
1363,1363,Montepuez,MZ,62.89,82,94,6.29,-13.1256,38.9997
1364,1364,Salamiyah,SY,64.24,69,0,8.1,35.0113,37.0532
1365,1365,Takoradi,GH,76.57,89,98,7.78,4.8845,-1.7554
1366,1366,Umm kaddadah,SD,80.73,17,80,0.98,13.6017,26.6876
1367,1367,Kaitangata,NZ,56.82,64,0,5.1,-46.2817,169.8464
1368,1368,Hobart,AU,49.86,76,75,26.46,-42.8794,147.3294
1369,1369,Provideniya,RU,42.91,75,0,11.18,64.3833,-173.3
1370,1370,West bay,KY,82.47,85,20,5.75,19.3667,-81.4167
1371,1371,Norman wells,CA,49.73,52,100,6.51,65.282,-126.8329
1372,1372,Ranong,TH,84.13,73,72,5.97,9.9658,98.6348
1373,1373,Palmer,US,61.97,74,5,1.45,42.1584,-72.3287
1374,1374,Busselton,AU,58.06,61,100,10.22,-33.65,115.3333
1375,1375,Hermanus,ZA,62.02,49,11,7.2,-34.4187,19.2345
1376,1376,Zhigansk,RU,66.11,43,100,3.56,66.7697,123.3711
1377,1377,Balangir,IN,91.6,42,51,4.68,20.7167,83.4833
1378,1378,Mount gambier,AU,48.22,78,93,10.65,-37.8333,140.7667
1379,1379,Bardiyah,LY,71.38,82,0,11.32,31.7561,25.0865
1380,1380,Hailar,CN,63.75,38,0,10.38,49.2,119.7
1381,1381,Brejo da madre de deus,BR,66.0,92,73,7.99,-8.1458,-36.3711
1382,1382,Castro,CL,47.68,93,100,20.71,-42.4721,-73.7732
1383,1383,Dongsheng,CN,67.6,27,82,11.61,39.8161,109.9776
1384,1384,Narsaq,GL,52.02,61,100,2.37,60.9167,-46.05
1385,1385,Brigantine,US,64.02,73,0,4.61,39.4101,-74.3646
1386,1386,Port elizabeth,ZA,55.38,82,7,6.13,-33.918,25.5701
1387,1387,Busselton,AU,58.06,61,100,10.22,-33.65,115.3333
1388,1388,Cartagena,CO,83.82,79,75,3.44,10.3997,-75.5144
1389,1389,Ushuaia,AR,47.86,49,75,17.27,-54.8,-68.3
1390,1390,Hobart,AU,49.86,76,75,26.46,-42.8794,147.3294
1391,1391,Cape town,ZA,64.11,51,4,3.67,-33.9258,18.4232
1392,1392,Cidreira,BR,62.4,97,100,8.19,-30.1811,-50.2056
1393,1393,Akdepe,TM,75.29,21,18,7.56,42.0551,59.3788
1394,1394,Kromy,RU,48.36,93,0,6.76,52.6876,35.7667
1395,1395,Itoman,JP,83.17,94,75,19.57,26.1247,127.6694
1396,1396,Sola,VU,81.28,75,29,18.92,-13.8833,167.55
1397,1397,Sur,OM,87.01,49,0,8.28,22.5667,59.5289
1398,1398,Jalu,LY,78.06,42,0,9.17,29.0331,21.5482
1399,1399,Manta,EC,73.18,78,100,6.91,-0.95,-80.7333
1400,1400,Upernavik,GL,29.12,81,1,9.82,72.7868,-56.1549
1401,1401,De aar,ZA,48.72,37,0,2.37,-30.6497,24.0123
1402,1402,Touros,BR,75.38,84,28,11.81,-5.1989,-35.4608
1403,1403,Nikolskoye,RU,51.8,94,100,4.43,59.7035,30.7861
1404,1404,Thompson,CA,56.97,61,89,0.98,55.7435,-97.8558
1405,1405,Dolinsk,RU,52.36,64,6,6.08,47.35,142.8
1406,1406,Megion,RU,44.62,65,100,5.48,61.0296,76.1136
1407,1407,Bengkulu,ID,79.65,75,100,2.71,-3.8004,102.2655
1408,1408,Phuket,TH,85.08,79,20,2.3,8.0,98.25
1409,1409,Kamiiso,JP,52.18,82,75,14.97,41.8167,140.65
1410,1410,Vao,NC,73.36,71,20,8.12,-22.6667,167.4833
1411,1411,Rikitea,PF,73.31,79,62,19.06,-23.1203,-134.9692
1412,1412,Kavieng,PG,84.36,66,14,3.67,-2.5744,150.7967
1413,1413,Nelson bay,AU,61.11,47,0,5.01,-32.7167,152.15
1414,1414,Rikitea,PF,73.31,79,62,19.06,-23.1203,-134.9692
1415,1415,Bafq,IR,77.49,17,0,0.38,31.6128,55.4107
1416,1416,Ushuaia,AR,47.86,49,75,17.27,-54.8,-68.3
1417,1417,Arraial do cabo,BR,69.06,66,0,17.34,-22.9661,-42.0278
1418,1418,Iqaluit,CA,42.53,75,0,12.66,63.7506,-68.5145
1419,1419,Iqaluit,CA,42.53,75,0,12.66,63.7506,-68.5145
1420,1420,Ulverstone,AU,51.06,61,19,14.76,-41.15,146.1667
1421,1421,Sangre grande,TT,76.96,91,92,10.4,10.5835,-61.1177
1422,1422,Plettenberg bay,ZA,59.45,59,6,5.61,-34.0527,23.3716
1423,1423,Praia da vitoria,PT,64.76,94,20,9.22,38.7333,-27.0667
1424,1424,Clyde river,CA,30.43,89,15,4.0,70.4692,-68.5914
1425,1425,Lagoa,PT,63.93,93,89,16.69,39.05,-27.9833
1426,1426,College,US,73.58,21,40,13.8,64.8569,-147.8028
1427,1427,Cape town,ZA,64.11,51,4,3.67,-33.9258,18.4232
1428,1428,Saint-philippe,RE,71.19,66,55,7.25,-21.3585,55.7679
1429,1429,Kapaa,US,82.38,70,0,10.36,22.0752,-159.319
1430,1430,Brae,GB,48.7,88,39,2.71,60.3964,-1.353
1431,1431,Chase,CA,67.08,83,83,3.27,50.8165,-119.6857
1432,1432,Sao felix do xingu,BR,69.89,97,13,0.83,-6.6447,-51.995
1433,1433,Vardo,NO,44.58,81,100,20.71,70.3705,31.1107
1434,1434,Chokurdakh,RU,55.17,33,0,11.01,70.6333,147.9167
1435,1435,Nikolskoye,RU,51.8,94,100,4.43,59.7035,30.7861
1436,1436,Dikson,RU,30.94,91,100,12.1,73.5069,80.5464
1437,1437,Albany,AU,54.82,77,100,5.99,-35.0169,117.8917
1438,1438,Ushuaia,AR,47.86,49,75,17.27,-54.8,-68.3
1439,1439,Santa vitoria do palmar,BR,56.14,94,100,2.95,-33.5189,-53.3681
1440,1440,Tasiilaq,GL,39.36,62,5,4.43,65.6145,-37.6368
1441,1441,Kodiak,US,56.71,72,0,11.5,57.79,-152.4072
1442,1442,Alice springs,AU,56.75,67,40,12.66,-23.7,133.8833
1443,1443,Bud,NO,40.95,72,83,6.24,62.9088,6.9145
1444,1444,Kapaa,US,82.38,70,0,10.36,22.0752,-159.319
1445,1445,San joaquin,BO,74.48,46,8,4.0,-16.3829,-58.3947
1446,1446,Albany,AU,54.82,77,100,5.99,-35.0169,117.8917
1447,1447,Rikitea,PF,73.31,79,62,19.06,-23.1203,-134.9692
1448,1448,Vila franca do campo,PT,70.2,96,96,5.19,37.7167,-25.4333
1449,1449,Puerto ayora,EC,70.56,96,100,4.0,-0.7393,-90.3518
1450,1450,Ketchikan,US,63.07,63,100,11.5,55.3422,-131.6461
1451,1451,Salta,AR,51.58,86,40,5.75,-24.7859,-65.4117
1452,1452,Aberdeen,US,63.3,84,100,8.32,45.4647,-98.4865
1453,1453,Punta arenas,CL,44.71,61,75,13.8,-53.15,-70.9167
1454,1454,Albany,AU,54.82,77,100,5.99,-35.0169,117.8917
1455,1455,Zhob,PK,78.76,9,0,5.19,31.3411,69.4481
1456,1456,Biak,ID,82.9,68,26,2.55,-0.9131,122.8766
1457,1457,Guerrero negro,MX,63.7,82,10,22.01,27.9769,-114.0611
1458,1458,Punta arenas,CL,44.71,61,75,13.8,-53.15,-70.9167
1459,1459,Juan lacaze,UY,46.11,88,73,2.21,-34.4342,-57.4381
1460,1460,Blagodatnoye,UA,55.81,93,9,8.23,47.7001,37.419
1461,1461,Pocatello,US,65.17,62,20,5.75,42.8713,-112.4455
1462,1462,Linda,RU,51.58,95,3,3.53,56.6157,44.0954
1463,1463,Vaini,TO,75.96,79,45,7.43,-21.2,-175.2
1464,1464,Kodiak,US,56.71,72,0,11.5,57.79,-152.4072
1465,1465,Mayskiy,RU,60.21,92,45,11.43,47.6931,40.1025
1466,1466,Jumla,NP,66.42,41,2,2.82,29.2747,82.1838
1467,1467,Zhumadian,CN,91.85,17,63,11.77,32.9794,114.0294
1468,1468,Mahebourg,MU,71.89,83,40,2.3,-20.4081,57.7
1469,1469,Fare,PF,80.11,75,19,16.46,-16.7,-151.0167
1470,1470,Carnarvon,AU,70.34,51,0,6.35,-24.8667,113.6333
1471,1471,Katsuura,JP,64.42,91,100,24.45,35.1333,140.3
1472,1472,Kitami,JP,47.66,61,48,5.64,43.8031,143.8908
1473,1473,Castro,CL,47.68,93,100,20.71,-42.4721,-73.7732
1474,1474,Rikitea,PF,73.31,79,62,19.06,-23.1203,-134.9692
1475,1475,Busselton,AU,58.06,61,100,10.22,-33.65,115.3333
1476,1476,Nemuro,JP,44.73,84,42,9.4,43.3236,145.575
1477,1477,Chokurdakh,RU,55.17,33,0,11.01,70.6333,147.9167
1478,1478,Rikitea,PF,73.31,79,62,19.06,-23.1203,-134.9692
1479,1479,Kavieng,PG,84.36,66,14,3.67,-2.5744,150.7967
1480,1480,Albany,AU,54.82,77,100,5.99,-35.0169,117.8917
1481,1481,Krasnovishersk,RU,54.01,69,100,6.91,60.4078,57.082
1482,1482,Victoria,SC,78.06,89,75,6.91,-4.6167,55.45
1483,1483,Punta arenas,CL,44.71,61,75,13.8,-53.15,-70.9167
1484,1484,Punta arenas,CL,44.71,61,75,13.8,-53.15,-70.9167
1485,1485,Tautira,PF,80.15,71,20,16.73,-17.7333,-149.15
1486,1486,Hellvik,NO,52.77,81,34,3.0,59.9156,5.781
1487,1487,Albany,AU,54.82,77,100,5.99,-35.0169,117.8917
1488,1488,Norman wells,CA,49.73,52,100,6.51,65.282,-126.8329
1489,1489,Butaritari,KI,82.24,71,69,12.84,3.0707,172.7902
1490,1490,Cherskiy,RU,44.8,50,20,17.96,68.75,161.3
1491,1491,Ramotswa,BW,46.02,52,27,2.57,-24.8716,25.8699
1492,1492,Ushuaia,AR,47.86,49,75,17.27,-54.8,-68.3
1493,1493,Thompson,CA,56.97,61,89,0.98,55.7435,-97.8558
1494,1494,Bamako,ML,84.61,61,0,9.22,12.65,-8.0
1495,1495,Ahipara,NZ,63.07,69,7,7.34,-35.1667,173.1667
1496,1496,Saldanha,ZA,63.59,36,0,7.38,-33.0117,17.9442
1497,1497,Albany,AU,54.82,77,100,5.99,-35.0169,117.8917
1498,1498,San cristobal,EC,72.84,86,93,13.56,-0.9045,-89.6174
1499,1499,Umm lajj,SA,82.0,61,7,7.05,25.0213,37.2685
1500,1500,Dikson,RU,30.94,91,100,12.1,73.5069,80.5464
1501,1501,Tuktoyaktuk,CA,32.41,75,36,9.24,69.4541,-133.0374
1502,1502,Kintampo,GH,70.65,95,100,5.41,8.0563,-1.7306
1503,1503,Hamilton,BM,77.04,88,100,24.16,32.2915,-64.778
1504,1504,Luderitz,,69.4,27,0,18.63,-26.6481,15.1594
1505,1505,The valley,AI,82.26,80,43,16.84,18.217,-63.0578
1506,1506,Albany,AU,54.82,77,100,5.99,-35.0169,117.8917
1507,1507,Geraldton,CA,47.82,92,91,4.65,49.7267,-86.9484
1508,1508,Placido de castro,BR,77.18,75,100,1.9,-10.3353,-67.1856
1509,1509,Dikson,RU,30.94,91,100,12.1,73.5069,80.5464
1510,1510,Oparino,RU,51.6,93,19,2.01,59.8518,48.2783
1511,1511,Kysyl-syr,RU,76.68,42,100,9.44,63.8986,122.7617
1512,1512,Rikitea,PF,73.31,79,62,19.06,-23.1203,-134.9692
1513,1513,Norman wells,CA,49.73,52,100,6.51,65.282,-126.8329
1514,1514,Saint-philippe,RE,71.19,66,55,7.25,-21.3585,55.7679
1515,1515,Georgetown,SH,78.01,69,34,10.38,-7.9333,-14.4167
1516,1516,Baykit,RU,53.15,47,99,4.43,61.67,96.37
1517,1517,Hobart,AU,49.86,76,75,26.46,-42.8794,147.3294
1518,1518,Tuktoyaktuk,CA,32.41,75,36,9.24,69.4541,-133.0374
1519,1519,Hami,CN,79.5,18,0,10.83,42.8,93.45
1520,1520,Viedma,AR,53.92,48,55,17.43,-40.8135,-62.9967
1521,1521,Nishihara,JP,82.45,94,100,19.57,26.1842,127.7558
1522,1522,Seidu,SL,69.84,95,100,3.8,9.0167,-10.6
1523,1523,Saint-philippe,RE,71.19,66,55,7.25,-21.3585,55.7679
1524,1524,Pinega,RU,54.25,87,23,3.71,64.7001,43.3936
1525,1525,Barrow,US,30.22,80,100,21.85,71.2906,-156.7887
1526,1526,Vaini,TO,75.96,79,45,7.43,-21.2,-175.2
1527,1527,East london,ZA,61.0,79,9,12.19,-33.0153,27.9116
1528,1528,Padang,ID,86.05,66,97,0.78,-0.9492,100.3543
1529,1529,Vao,NC,73.36,71,20,8.12,-22.6667,167.4833
1530,1530,Yerbogachen,RU,50.54,74,100,5.28,61.2767,108.0108
1531,1531,Port lincoln,AU,56.08,64,98,19.33,-34.7333,135.8667
1532,1532,Aleppo,SY,64.49,80,0,9.86,36.25,37.5
1533,1533,Aitape,PG,85.6,65,83,5.01,-3.1374,142.3475
1534,1534,Vestmanna,FO,49.12,87,100,9.22,62.1564,-7.1664
1535,1535,Mareeba,AU,79.66,84,100,2.19,-17.0,145.4333
1536,1536,Longyearbyen,SJ,44.44,87,40,3.44,78.2186,15.6401
1537,1537,Ponnani,IN,76.32,84,100,2.08,10.767,75.9252
1538,1538,Upernavik,GL,29.12,81,1,9.82,72.7868,-56.1549
1539,1539,Albany,AU,54.82,77,100,5.99,-35.0169,117.8917
1540,1540,Ketchikan,US,63.07,63,100,11.5,55.3422,-131.6461
1541,1541,Yellowknife,CA,73.56,25,79,17.0,62.456,-114.3525
1542,1542,Manoel urbano,BR,75.58,85,100,1.7,-8.8389,-69.2597
1543,1543,Mar del plata,AR,48.09,90,100,5.75,-38.0023,-57.5575
1544,1544,Tupiza,BO,50.49,56,71,5.86,-21.45,-65.7167
1545,1545,Mahanoro,MG,67.14,92,55,6.62,-19.9,48.8
1546,1546,East london,ZA,61.0,79,9,12.19,-33.0153,27.9116
1547,1547,Hobart,AU,49.86,76,75,26.46,-42.8794,147.3294
1548,1548,Tasiilaq,GL,39.36,62,5,4.43,65.6145,-37.6368
1549,1549,Mar del plata,AR,48.09,90,100,5.75,-38.0023,-57.5575
1550,1550,Albany,AU,54.82,77,100,5.99,-35.0169,117.8917
1551,1551,Rikitea,PF,73.31,79,62,19.06,-23.1203,-134.9692
1552,1552,Batavia,US,71.4,59,40,5.75,41.85,-88.3126
1553,1553,Bluff,NZ,55.8,71,4,6.76,-46.6,168.3333
1554,1554,Atuona,PF,78.48,72,13,15.35,-9.8,-139.0333
1555,1555,Coquimbo,CL,53.33,82,0,4.61,-29.9533,-71.3436
1556,1556,Tiksi,RU,42.71,78,78,4.54,71.6872,128.8694
1557,1557,Torbay,CA,48.27,70,75,11.5,47.6666,-52.7314
1558,1558,Armidale,AU,50.36,61,18,20.38,-30.5167,151.65
1559,1559,Deputatskiy,RU,61.5,51,85,8.1,69.3,139.9
1560,1560,New norfolk,AU,49.5,84,98,8.01,-42.7826,147.0587
1561,1561,Ponta do sol,PT,64.71,77,51,0.47,32.6667,-17.1
1562,1562,Vaini,TO,75.96,79,45,7.43,-21.2,-175.2
1563,1563,Nikolskoye,RU,51.8,94,100,4.43,59.7035,30.7861
1564,1564,Cayenne,GF,81.09,1,100,2.3,4.9333,-52.3333
1565,1565,Vaini,TO,75.96,79,45,7.43,-21.2,-175.2
1566,1566,Lima,PE,63.9,82,0,9.22,-12.0432,-77.0282
1567,1567,Uglegorsk,RU,49.41,73,15,6.55,49.0833,142.0333
1568,1568,Gurkovo,BG,62.98,86,57,2.98,42.6667,25.8
1569,1569,Tuktoyaktuk,CA,32.41,75,36,9.24,69.4541,-133.0374
1570,1570,Bambous virieux,MU,69.22,79,54,9.48,-20.3428,57.7575
1571,1571,Petropavlovsk-kamchatskiy,RU,59.59,48,40,15.66,53.0452,158.6483
1572,1572,Tuktoyaktuk,CA,32.41,75,36,9.24,69.4541,-133.0374
1573,1573,Leningradskiy,RU,35.98,75,66,10.27,69.3833,178.4167
1574,1574,Punta arenas,CL,44.71,61,75,13.8,-53.15,-70.9167
1575,1575,Bluff,NZ,55.8,71,4,6.76,-46.6,168.3333
1576,1576,Kysyl-syr,RU,76.68,42,100,9.44,63.8986,122.7617
1577,1577,Olafsvik,IS,42.03,50,74,12.26,64.8945,-23.7142
1578,1578,Zhifang,CN,84.18,60,49,3.62,30.35,114.3167
1579,1579,Maracaibo,VE,81.37,75,11,6.76,10.6317,-71.6406
1580,1580,Sitka,US,60.69,67,75,8.05,57.0531,-135.33
1581,1581,Port lincoln,AU,56.08,64,98,19.33,-34.7333,135.8667
1582,1582,Rikitea,PF,73.31,79,62,19.06,-23.1203,-134.9692
1583,1583,Souillac,MU,71.26,80,21,8.57,-20.5167,57.5167
1584,1584,Palmerston,AU,88.93,66,40,5.75,-12.486,130.9833
1585,1585,Baghdad,IQ,87.71,23,8,4.61,33.3406,44.4009
1586,1586,Gandajika,CD,63.41,60,3,4.34,-6.75,23.95
1587,1587,Rikitea,PF,73.31,79,62,19.06,-23.1203,-134.9692
1588,1588,Arraial do cabo,BR,69.06,66,0,17.34,-22.9661,-42.0278
1589,1589,Lebu,CL,50.92,88,100,4.12,-37.6167,-73.65
1590,1590,Simbahan,PH,82.31,71,96,3.06,6.3032,120.5836
1591,1591,Upernavik,GL,29.12,81,1,9.82,72.7868,-56.1549
1592,1592,Upernavik,GL,29.12,81,1,9.82,72.7868,-56.1549
1593,1593,Touros,BR,75.38,84,28,11.81,-5.1989,-35.4608
1594,1594,Cape town,ZA,64.11,51,4,3.67,-33.9258,18.4232
1595,1595,Rikitea,PF,73.31,79,62,19.06,-23.1203,-134.9692
1596,1596,Atuona,PF,78.48,72,13,15.35,-9.8,-139.0333
1597,1597,Cape town,ZA,64.11,51,4,3.67,-33.9258,18.4232
1598,1598,Los llanos de aridane,ES,65.95,79,40,14.97,28.6585,-17.9182
1599,1599,Carnarvon,AU,70.34,51,0,6.35,-24.8667,113.6333
1600,1600,Amahai,ID,84.2,66,18,0.65,-3.3333,128.9167
1601,1601,Te anau,NZ,54.86,76,11,2.93,-45.4167,167.7167
1602,1602,Rikitea,PF,73.31,79,62,19.06,-23.1203,-134.9692
1603,1603,Amasya,TR,56.88,84,33,3.0,40.6667,35.8333
1604,1604,Atuona,PF,78.48,72,13,15.35,-9.8,-139.0333
1605,1605,Barrow,US,30.22,80,100,21.85,71.2906,-156.7887
1606,1606,Puerto ayora,EC,70.56,96,100,4.0,-0.7393,-90.3518
1607,1607,Barrow,US,30.22,80,100,21.85,71.2906,-156.7887
1608,1608,Fortuna,US,63.52,74,20,8.05,40.5982,-124.1573
1609,1609,Ribeira grande,PT,65.16,94,81,11.72,38.5167,-28.7
1610,1610,Te anau,NZ,54.86,76,11,2.93,-45.4167,167.7167
1611,1611,Sambava,MG,68.23,81,5,9.91,-14.2667,50.1667
1612,1612,Victoria,SC,78.06,89,75,6.91,-4.6167,55.45
1613,1613,Albany,AU,54.82,77,100,5.99,-35.0169,117.8917
1614,1614,Mount gambier,AU,48.22,78,93,10.65,-37.8333,140.7667
1615,1615,Mount gambier,AU,48.22,78,93,10.65,-37.8333,140.7667
1616,1616,Nikolskoye,RU,51.8,94,100,4.43,59.7035,30.7861
1617,1617,Vredendal,ZA,63.25,26,0,9.28,-31.6683,18.5012
1618,1618,Nanortalik,GL,43.34,78,100,4.16,60.1432,-45.2371
1619,1619,Rikitea,PF,73.31,79,62,19.06,-23.1203,-134.9692
1620,1620,Port hardy,CA,53.89,81,97,3.02,50.6996,-127.4199
1621,1621,Hilo,US,87.28,86,100,4.61,19.7297,-155.09
1622,1622,Cidreira,BR,62.4,97,100,8.19,-30.1811,-50.2056
1623,1623,Jega,NG,84.49,47,100,8.41,12.2175,4.3792
1624,1624,Tuktoyaktuk,CA,32.41,75,36,9.24,69.4541,-133.0374
1625,1625,Namatanai,PG,84.76,66,37,3.29,-3.6667,152.4333
1626,1626,Tulum,MX,78.19,86,99,5.95,20.2167,-87.4667
1627,1627,Castro,CL,47.68,93,100,20.71,-42.4721,-73.7732
1628,1628,Ponta do sol,CV,73.18,79,16,15.68,17.1994,-25.0919
1629,1629,Gamba,GA,71.83,96,99,2.08,-2.65,10.0
1630,1630,Ribeira grande,PT,65.16,94,81,11.72,38.5167,-28.7
1631,1631,Ushuaia,AR,47.86,49,75,17.27,-54.8,-68.3
1632,1632,South sioux city,US,67.95,88,100,4.61,42.4739,-96.4136
1633,1633,Severo-kurilsk,RU,46.83,81,80,2.08,50.6789,156.125
1634,1634,Fortuna,US,63.52,74,20,8.05,40.5982,-124.1573
1635,1635,Longyearbyen,SJ,44.44,87,40,3.44,78.2186,15.6401
1636,1636,Portland,AU,51.78,69,79,16.15,-38.3333,141.6
1637,1637,Biak,ID,82.9,68,26,2.55,-0.9131,122.8766
1638,1638,Norman wells,CA,49.73,52,100,6.51,65.282,-126.8329
1639,1639,Avarua,CK,80.65,78,40,13.8,-21.2078,-159.775
1640,1640,Port elizabeth,ZA,55.38,82,7,6.13,-33.918,25.5701
1641,1641,Kainantu,PG,74.55,56,91,5.32,-6.2887,145.8655
1642,1642,Ponta do sol,CV,73.18,79,16,15.68,17.1994,-25.0919
1643,1643,Nikolskoye,RU,51.8,94,100,4.43,59.7035,30.7861
1644,1644,Bethel,US,64.9,72,0,0.0,41.3712,-73.414
1645,1645,Saldanha,ZA,63.59,36,0,7.38,-33.0117,17.9442
1646,1646,Buchanan,LR,78.1,86,100,5.95,5.8808,-10.0467
1647,1647,Severo-kurilsk,RU,46.83,81,80,2.08,50.6789,156.125
1648,1648,Vaini,TO,75.96,79,45,7.43,-21.2,-175.2
1649,1649,Russell,NZ,69.24,69,17,3.87,-35.2613,174.1236
1650,1650,Vaini,TO,75.96,79,45,7.43,-21.2,-175.2
1651,1651,Rikitea,PF,73.31,79,62,19.06,-23.1203,-134.9692
1652,1652,Sanctorum,MX,67.32,59,40,5.75,19.1,-98.25
1653,1653,Nikolskoye,RU,51.8,94,100,4.43,59.7035,30.7861
1654,1654,Makakilo city,US,82.72,58,40,12.66,21.3469,-158.0858
1655,1655,Gwadar,PK,81.59,82,0,6.26,25.1216,62.3254
1656,1656,Port lincoln,AU,56.08,64,98,19.33,-34.7333,135.8667
1657,1657,Vao,NC,73.36,71,20,8.12,-22.6667,167.4833
1658,1658,Yumen,CN,73.89,20,46,9.44,40.2833,97.2
1659,1659,Luderitz,,69.4,27,0,18.63,-26.6481,15.1594
1660,1660,Port elizabeth,ZA,55.38,82,7,6.13,-33.918,25.5701
1661,1661,Butaritari,KI,82.24,71,69,12.84,3.0707,172.7902
1662,1662,Provideniya,RU,42.91,75,0,11.18,64.3833,-173.3
1663,1663,Autazes,BR,72.63,99,100,2.13,-3.5797,-59.1306
1664,1664,Libreville,GA,78.82,89,40,4.61,0.3925,9.4537
1665,1665,Pangnirtung,CA,33.13,81,0,3.85,66.1451,-65.7125
1666,1666,Biankouma,CI,67.06,99,99,0.11,7.7391,-7.6138
1667,1667,Ushuaia,AR,47.86,49,75,17.27,-54.8,-68.3
1668,1668,Mahebourg,MU,71.89,83,40,2.3,-20.4081,57.7
1669,1669,Takab,IR,63.14,40,100,2.15,36.4009,47.1133
1670,1670,Port lincoln,AU,56.08,64,98,19.33,-34.7333,135.8667
1671,1671,Georgetown,SH,78.01,69,34,10.38,-7.9333,-14.4167
1672,1672,Chuy,UY,55.42,94,100,3.18,-33.6971,-53.4616
1673,1673,Ancud,CL,49.06,93,100,28.03,-41.8697,-73.8203
1674,1674,Kaitangata,NZ,56.82,64,0,5.1,-46.2817,169.8464
1675,1675,Vaini,TO,75.96,79,45,7.43,-21.2,-175.2
1676,1676,Cape town,ZA,64.11,51,4,3.67,-33.9258,18.4232
1677,1677,Rikitea,PF,73.31,79,62,19.06,-23.1203,-134.9692
1678,1678,Fortuna,US,63.52,74,20,8.05,40.5982,-124.1573
1679,1679,Dori,BF,89.22,31,3,11.9,14.0354,-0.0345
1680,1680,Vestmannaeyjar,IS,48.33,88,100,7.4,63.4427,-20.2734
1681,1681,Georgetown,SH,78.01,69,34,10.38,-7.9333,-14.4167
1682,1682,Atuona,PF,78.48,72,13,15.35,-9.8,-139.0333
1683,1683,Mityana,UG,59.0,81,87,1.97,0.4175,32.0228
1684,1684,Nanortalik,GL,43.34,78,100,4.16,60.1432,-45.2371
1685,1685,Calvinia,ZA,52.79,33,0,7.02,-31.4707,19.776
1686,1686,Inhambane,MZ,69.58,76,100,18.39,-23.865,35.3833
1687,1687,Nikolskoye,RU,51.8,94,100,4.43,59.7035,30.7861
1688,1688,Guiratinga,BR,69.89,51,1,4.14,-16.3494,-53.7583
1689,1689,Hilo,US,87.28,86,100,4.61,19.7297,-155.09
1690,1690,Kodiak,US,56.71,72,0,11.5,57.79,-152.4072
1691,1691,Rio branco,BR,72.21,100,0,2.3,-9.9747,-67.81
1692,1692,Maniitsoq,GL,43.93,56,3,9.93,65.4167,-52.9
1693,1693,Gotemba,JP,59.54,98,100,6.53,35.3,138.9333
1694,1694,Tuktoyaktuk,CA,32.41,75,36,9.24,69.4541,-133.0374
1695,1695,Provideniya,RU,42.91,75,0,11.18,64.3833,-173.3
1696,1696,Aklavik,CA,45.45,45,11,6.33,68.2191,-135.0107
1697,1697,Vaini,TO,75.96,79,45,7.43,-21.2,-175.2
1698,1698,Punta arenas,CL,44.71,61,75,13.8,-53.15,-70.9167
1699,1699,Bredasdorp,ZA,54.66,61,3,3.98,-34.5322,20.0403
1700,1700,Najran,SA,70.45,18,0,4.94,17.4924,44.1277
1701,1701,Atuona,PF,78.48,72,13,15.35,-9.8,-139.0333
1702,1702,Ushuaia,AR,47.86,49,75,17.27,-54.8,-68.3
1703,1703,Kapaa,US,82.38,70,0,10.36,22.0752,-159.319
1704,1704,Chokurdakh,RU,55.17,33,0,11.01,70.6333,147.9167
1705,1705,Alofi,NU,84.09,74,65,3.44,-19.0595,-169.9187
1706,1706,Lang son,VN,81.14,78,100,5.53,21.8333,106.7333
1707,1707,Busselton,AU,58.06,61,100,10.22,-33.65,115.3333
1708,1708,Sitka,US,60.69,67,75,8.05,57.0531,-135.33
1709,1709,Lebu,CL,50.92,88,100,4.12,-37.6167,-73.65
1710,1710,Cape town,ZA,64.11,51,4,3.67,-33.9258,18.4232
1711,1711,Hilo,US,87.28,86,100,4.61,19.7297,-155.09
1712,1712,Busselton,AU,58.06,61,100,10.22,-33.65,115.3333
1713,1713,Kaitangata,NZ,56.82,64,0,5.1,-46.2817,169.8464
1714,1714,Atambua,ID,83.57,59,45,1.54,-9.1061,124.8925
1715,1715,Cape town,ZA,64.11,51,4,3.67,-33.9258,18.4232
1716,1716,Vila franca do campo,PT,70.2,96,96,5.19,37.7167,-25.4333
1717,1717,Barrow,US,30.22,80,100,21.85,71.2906,-156.7887
1718,1718,Paraiso,MX,80.22,75,99,11.14,18.4,-93.2333
1719,1719,Tutoia,BR,76.06,90,100,10.31,-2.7619,-42.2744
1720,1720,Birjand,IR,55.87,19,0,6.91,32.8663,59.2211
1721,1721,Bethel,US,64.9,72,0,0.0,41.3712,-73.414
1722,1722,Ushuaia,AR,47.86,49,75,17.27,-54.8,-68.3
1723,1723,Nome,US,70.16,34,0,14.97,64.5011,-165.4064
1724,1724,Yar-sale,RU,41.04,52,100,3.71,66.8333,70.8333
1725,1725,Cidreira,BR,62.4,97,100,8.19,-30.1811,-50.2056
1726,1726,Puerto ayora,EC,70.56,96,100,4.0,-0.7393,-90.3518
1727,1727,Yellowknife,CA,73.56,25,79,17.0,62.456,-114.3525
1728,1728,Hermanus,ZA,62.02,49,11,7.2,-34.4187,19.2345
1729,1729,Puerto ayora,EC,70.56,96,100,4.0,-0.7393,-90.3518
1730,1730,Bowen,AU,77.68,68,100,4.52,-20.0167,148.2333
1731,1731,El tigre,VE,75.18,83,34,4.09,8.8875,-64.2454
1732,1732,Bluff,NZ,55.8,71,4,6.76,-46.6,168.3333
1733,1733,Hermanus,ZA,62.02,49,11,7.2,-34.4187,19.2345
1734,1734,Yellowknife,CA,73.56,25,79,17.0,62.456,-114.3525
1735,1735,Massape,BR,72.34,96,89,1.79,-3.5228,-40.3428
1736,1736,Rikitea,PF,73.31,79,62,19.06,-23.1203,-134.9692
1737,1737,Kodiak,US,56.71,72,0,11.5,57.79,-152.4072
1738,1738,Port elizabeth,ZA,55.38,82,7,6.13,-33.918,25.5701
1739,1739,Vyartsilya,RU,41.79,89,0,4.38,62.1764,30.693
1740,1740,Port alfred,ZA,54.18,91,8,11.41,-33.5906,26.891
1741,1741,Vaini,TO,75.96,79,45,7.43,-21.2,-175.2
1742,1742,Tuktoyaktuk,CA,32.41,75,36,9.24,69.4541,-133.0374
1743,1743,Castro,CL,47.68,93,100,20.71,-42.4721,-73.7732
1744,1744,Punta arenas,CL,44.71,61,75,13.8,-53.15,-70.9167
1745,1745,Kohlu,PK,82.87,20,0,0.16,29.8962,69.252
1746,1746,Castro,CL,47.68,93,100,20.71,-42.4721,-73.7732
1747,1747,Vaini,TO,75.96,79,45,7.43,-21.2,-175.2
1748,1748,Gobabis,,47.34,48,99,10.07,-22.45,18.9667
1749,1749,Tasiilaq,GL,39.36,62,5,4.43,65.6145,-37.6368
1750,1750,Ushuaia,AR,47.86,49,75,17.27,-54.8,-68.3
1751,1751,Hasaki,JP,63.0,87,100,21.97,35.7333,140.8333
1752,1752,Senanga,ZM,49.32,64,6,6.13,-16.1167,23.2667
1753,1753,Lorengau,PG,85.41,59,28,7.07,-2.0226,147.2712
1754,1754,Lavrentiya,RU,43.07,60,53,5.97,65.5833,-171.0
1755,1755,Jamestown,SH,64.02,71,0,3.65,-15.9387,-5.7168
1756,1756,Oktyabrskiy,RU,58.08,83,100,2.57,54.4815,53.471
